formatted_address,latitude,longitude,google_place_id,input_string,response
Al Barsha - Dubai - United Arab Emirates,25.083827,55.220397,ChIJGcP43A9sXz4RgjRv5o6UtcE,"Al Barsha ,  Dubai , United Arab Emirates","{'results': [{'address_components': [{'long_name': 'Al Barsha', 'short_name': 'Al Barsha', 'types': ['political', 'sublocality', 'sublocality_level_1']}, {'long_name': 'Dubai', 'short_name': 'Dubai', 'types': ['locality', 'political']}, {'long_name': 'Dubai', 'short_name': 'Dubai', 'types': ['administrative_area_level_1', 'political']}, {'long_name': 'United Arab Emirates', 'short_name': 'AE', 'types': ['country', 'political']}], 'formatted_address': 'Al Barsha - Dubai - United Arab Emirates', 'geometry': {'bounds': {'northeast': {'lat': 25.1223035, 'lng': 55.2493559}, 'southwest': {'lat': 25.0526682, 'lng': 55.1779825}}, 'location': {'lat': 25.083827, 'lng': 55.220397}, 'location_type': 'APPROXIMATE', 'viewport': {'northeast': {'lat': 25.1223035, 'lng': 55.2493559}, 'southwest': {'lat': 25.0526682, 'lng': 55.1779825}}}, 'place_id': 'ChIJGcP43A9sXz4RgjRv5o6UtcE', 'types': ['political', 'sublocality', 'sublocality_level_1']}], 'status': 'OK'}"
Al Wasl - Dubai - United Arab Emirates,25.199425,55.2563077,ChIJa74Ry3ZCXz4RAZDw13CSb3o,"Al Wasl ,  Dubai , United Arab Emirates","{'results': [{'address_components': [{'long_name': 'Al Wasl', 'short_name': 'Al Wasl', 'types': ['political', 'sublocality', 'sublocality_level_1']}, {'long_name': 'Dubai', 'short_name': 'Dubai', 'types': ['locality', 'political']}, {'long_name': 'Dubai', 'short_name': 'Dubai', 'types': ['administrative_area_level_1', 'political']}, {'long_name': 'United Arab Emirates', 'short_name': 'AE', 'types': ['country', 'political']}], 'formatted_address': 'Al Wasl - Dubai - United Arab Emirates', 'geometry': {'bounds': {'northeast': {'lat': 25.2114023, 'lng': 55.26996579999999}, 'southwest': {'lat': 25.185162, 'lng': 55.2432668}}, 'location': {'lat': 25.199425, 'lng': 55.25630770000001}, 'location_type': 'APPROXIMATE', 'viewport': {'northeast': {'lat': 25.2114023, 'lng': 55.26996579999999}, 'southwest': {'lat': 25.185162, 'lng': 55.2432668}}}, 'place_id': 'ChIJa74Ry3ZCXz4RAZDw13CSb3o', 'types': ['political', 'sublocality', 'sublocality_level_1']}], 'status': 'OK'}"
Al QuozAl Quoz 4 - Dubai - United Arab Emirates,25.1514047,55.250782,ChIJV9mCQphpXz4RrgfW4AV-8bM,"Al Qoaz ,  Dubai , United Arab Emirates","{'results': [{'address_components': [{'long_name': 'Al Quoz 4', 'short_name': 'Al Quoz 4', 'types': ['neighborhood', 'political']}, {'long_name': 'Al Quoz', 'short_name': 'Al Quoz', 'types': ['political', 'sublocality', 'sublocality_level_1']}, {'long_name': 'Dubai', 'short_name': 'Dubai', 'types': ['locality', 'political']}, {'long_name': 'Dubai', 'short_name': 'Dubai', 'types': ['administrative_area_level_1', 'political']}, {'long_name': 'United Arab Emirates', 'short_name': 'AE', 'types': ['country', 'political']}], 'formatted_address': 'Al QuozAl Quoz 4 - Dubai - United Arab Emirates', 'geometry': {'bounds': {'northeast': {'lat': 25.1611919, 'lng': 55.2614666}, 'southwest': {'lat': 25.1441968, 'lng': 55.2409315}}, 'location': {'lat': 25.1514047, 'lng': 55.250782}, 'location_type': 'APPROXIMATE', 'viewport': {'northeast': {'lat': 25.1611919, 'lng': 55.2614666}, 'southwest': {'lat': 25.1441968, 'lng': 55.2409315}}}, 'partial_match': True, 'place_id': 'ChIJV9mCQphpXz4RrgfW4AV-8bM', 'types': ['neighborhood', 'political']}], 'status': 'OK'}"
Al SafaAl Safa 2 - Dubai - United Arab Emirates,25.1586178,55.2245398,ChIJaVOfZCBqXz4RWfomWSr4UOI,"Al Safaa ,  Dubai , United Arab Emirates","{'results': [{'address_components': [{'long_name': 'Al Safa 2', 'short_name': 'Al Safa 2', 'types': ['neighborhood', 'political']}, {'long_name': 'Al Safa', 'short_name': 'Al Safa', 'types': ['political', 'sublocality', 'sublocality_level_1']}, {'long_name': 'Dubai', 'short_name': 'Dubai', 'types': ['locality', 'political']}, {'long_name': 'Dubai', 'short_name': 'Dubai', 'types': ['administrative_area_level_1', 'political']}, {'long_name': 'United Arab Emirates', 'short_name': 'AE', 'types': ['country', 'political']}], 'formatted_address': 'Al SafaAl Safa 2 - Dubai - United Arab Emirates', 'geometry': {'bounds': {'northeast': {'lat': 25.1693148, 'lng': 55.2342904}, 'southwest': {'lat': 25.1509175, 'lng': 55.2163141}}, 'location': {'lat': 25.1586178, 'lng': 55.2245398}, 'location_type': 'APPROXIMATE', 'viewport': {'northeast': {'lat': 25.1693148, 'lng': 55.2342904}, 'southwest': {'lat': 25.1509175, 'lng': 55.2163141}}}, 'partial_match': True, 'place_id': 'ChIJaVOfZCBqXz4RWfomWSr4UOI', 'types': ['neighborhood', 'political']}], 'status': 'OK'}"
Ras Al Khor - Dubai - United Arab Emirates,25.1945448,55.3641298,ChIJtU2huL1nXz4Rp1_y3b3T-9U,"Ras Al Khor ,  Dubai , United Arab Emirates","{'results': [{'address_components': [{'long_name': 'Ras Al Khor', 'short_name': 'Ras Al Khor', 'types': ['political', 'sublocality', 'sublocality_level_1']}, {'long_name': 'Dubai', 'short_name': 'Dubai', 'types': ['locality', 'political']}, {'long_name': 'Dubai', 'short_name': 'Dubai', 'types': ['administrative_area_level_1', 'political']}, {'long_name': 'United Arab Emirates', 'short_name': 'AE', 'types': ['country', 'political']}], 'formatted_address': 'Ras Al Khor - Dubai - United Arab Emirates', 'geometry': {'bounds': {'northeast': {'lat': 25.2113453, 'lng': 55.3757254}, 'southwest': {'lat': 25.18221, 'lng': 55.3102037}}, 'location': {'lat': 25.1945448, 'lng': 55.3641298}, 'location_type': 'APPROXIMATE', 'viewport': {'northeast': {'lat': 25.2113453, 'lng': 55.3757254}, 'southwest': {'lat': 25.18221, 'lng': 55.3102037}}}, 'place_id': 'ChIJtU2huL1nXz4Rp1_y3b3T-9U', 'types': ['political', 'sublocality', 'sublocality_level_1']}], 'status': 'OK'}"
Al Mankhool - Dubai - United Arab Emirates,25.2459667,55.2949976,ChIJl_c3LiJDXz4R6v8gbbQZP_E,"Mankhool ,  Dubai , United Arab Emirates","{'results': [{'address_components': [{'long_name': 'Al Mankhool', 'short_name': 'Al Mankhool', 'types': ['political', 'sublocality', 'sublocality_level_1']}, {'long_name': 'Dubai', 'short_name': 'Dubai', 'types': ['locality', 'political']}, {'long_name': 'Dubai', 'short_name': 'Dubai', 'types': ['administrative_area_level_1', 'political']}, {'long_name': 'United Arab Emirates', 'short_name': 'AE', 'types': ['country', 'political']}], 'formatted_address': 'Al Mankhool - Dubai - United Arab Emirates', 'geometry': {'bounds': {'northeast': {'lat': 25.2576403, 'lng': 55.3036019}, 'southwest': {'lat': 25.2404051, 'lng': 55.2855636}}, 'location': {'lat': 25.2459667, 'lng': 55.29499759999999}, 'location_type': 'APPROXIMATE', 'viewport': {'northeast': {'lat': 25.2576403, 'lng': 55.3036019}, 'southwest': {'lat': 25.2404051, 'lng': 55.2855636}}}, 'place_id': 'ChIJl_c3LiJDXz4R6v8gbbQZP_E', 'types': ['political', 'sublocality', 'sublocality_level_1']}], 'status': 'OK'}"
Al BarshaAl Barsha 1 - Dubai - United Arab Emirates,25.1128489,55.1904128,ChIJ-wzajqJrXz4RaAIvUnx2SWo,"Tawaa Al Sayegh ,  Dubai , United Arab Emirates","{'results': [{'address_components': [{'long_name': 'Dubai', 'short_name': 'Dubai', 'types': ['locality', 'political']}, {'long_name': 'Al Barsha 1', 'short_name': 'Al Barsha 1', 'types': ['neighborhood', 'political']}, {'long_name': 'Al Barsha', 'short_name': 'Al Barsha', 'types': ['political', 'sublocality', 'sublocality_level_1']}, {'long_name': 'Dubai', 'short_name': 'Dubai', 'types': ['administrative_area_level_1', 'political']}, {'long_name': 'United Arab Emirates', 'short_name': 'AE', 'types': ['country', 'political']}], 'formatted_address': 'Al BarshaAl Barsha 1 - Dubai - United Arab Emirates', 'geometry': {'location': {'lat': 25.1128489, 'lng': 55.1904128}, 'location_type': 'GEOMETRIC_CENTER', 'viewport': {'northeast': {'lat': 25.11419788029151, 'lng': 55.1917617802915}, 'southwest': {'lat': 25.1114999197085, 'lng': 55.1890638197085}}}, 'place_id': 'ChIJ-wzajqJrXz4RaAIvUnx2SWo', 'plus_code': {'compound_code': '457R+45 Dubai - United Arab Emirates', 'global_code': '7HQQ457R+45'}, 'types': ['establishment', 'point_of_interest']}, {'address_components': [{'long_name': 'Opposite Internet and', 'short_name': 'Opposite Internet and', 'types': ['establishment', 'point_of_interest']}, {'long_name': 'شارع الشيخ زايد', 'short_name': 'شارع الشيخ زايد', 'types': ['route']}, {'long_name': 'Dubai Media City', 'short_name': 'DMC', 'types': ['neighborhood', 'political']}, {'long_name': 'دبي', 'short_name': 'دبي', 'types': ['locality', 'political']}, {'long_name': 'دبي', 'short_name': 'دبي', 'types': ['administrative_area_level_1', 'political']}, {'long_name': 'United Arab Emirates', 'short_name': 'AE', 'types': ['country', 'political']}], 'formatted_address': 'Cayan Business Center (TECOM - Opposite Internet and - شارع الشيخ زايد - Dubai Media City - دبي - United Arab Emirates', 'geometry': {'location': {'lat': 25.0955895, 'lng': 55.17578839999999}, 'location_type': 'GEOMETRIC_CENTER', 'viewport': {'northeast': {'lat': 25.0969384802915, 'lng': 55.17713738029149}, 'southwest': {'lat': 25.0942405197085, 'lng': 55.17443941970849}}}, 'place_id': 'ChIJV8rniXlrXz4Roq1Dfv8eYvc', 'plus_code': {'compound_code': '35WG+68 Dubai - United Arab Emirates', 'global_code': '7HQQ35WG+68'}, 'types': ['establishment', 'point_of_interest']}], 'status': 'OK'}"
Al Hudaiba - Dubai - United Arab Emirates,25.2431974,55.2797959,ChIJlwZCGgNDXz4R1BDYspXNgfM,"Al Hudaiba ,  Dubai , United Arab Emirates","{'results': [{'address_components': [{'long_name': 'Al Hudaiba', 'short_name': 'Al Hudaiba', 'types': ['political', 'sublocality', 'sublocality_level_1']}, {'long_name': 'Dubai', 'short_name': 'Dubai', 'types': ['locality', 'political']}, {'long_name': 'Dubai', 'short_name': 'Dubai', 'types': ['administrative_area_level_1', 'political']}, {'long_name': 'United Arab Emirates', 'short_name': 'AE', 'types': ['country', 'political']}], 'formatted_address': 'Al Hudaiba - Dubai - United Arab Emirates', 'geometry': {'bounds': {'northeast': {'lat': 25.2491772, 'lng': 55.284383}, 'southwest': {'lat': 25.2353325, 'lng': 55.2725917}}, 'location': {'lat': 25.2431974, 'lng': 55.2797959}, 'location_type': 'APPROXIMATE', 'viewport': {'northeast': {'lat': 25.2491772, 'lng': 55.284383}, 'southwest': {'lat': 25.2353325, 'lng': 55.2725917}}}, 'place_id': 'ChIJlwZCGgNDXz4R1BDYspXNgfM', 'types': ['political', 'sublocality', 'sublocality_level_1']}], 'status': 'OK'}"
Dubai - United Arab Emirates,25.2048493,55.2707828,ChIJRcbZaklDXz4RYlEphFBu5r0,"Zareeba Duviya ,  Dubai , United Arab Emirates","{'results': [{'address_components': [{'long_name': 'Dubai', 'short_name': 'Dubai', 'types': ['locality', 'political']}, {'long_name': 'Dubai', 'short_name': 'Dubai', 'types': ['administrative_area_level_1', 'political']}, {'long_name': 'United Arab Emirates', 'short_name': 'AE', 'types': ['country', 'political']}], 'formatted_address': 'Dubai - United Arab Emirates', 'geometry': {'bounds': {'northeast': {'lat': 25.3585607, 'lng': 55.5650393}, 'southwest': {'lat': 24.7921359, 'lng': 54.89045429999999}}, 'location': {'lat': 25.2048493, 'lng': 55.2707828}, 'location_type': 'APPROXIMATE', 'viewport': {'northeast': {'lat': 25.3585607, 'lng': 55.5650393}, 'southwest': {'lat': 24.7921359, 'lng': 54.89045429999999}}}, 'partial_match': True, 'place_id': 'ChIJRcbZaklDXz4RYlEphFBu5r0', 'types': ['locality', 'political']}], 'status': 'OK'}"
Bur Dubai - Dubai - United Arab Emirates,25.2145565,55.3032906,ChIJYXshnzlDXz4RiypxAjQP118,"Bur Dubai ,  Dubai , United Arab Emirates","{'results': [{'address_components': [{'long_name': 'Bur Dubai', 'short_name': 'Bur Dubai', 'types': ['colloquial_area', 'political']}, {'long_name': 'Dubai', 'short_name': 'Dubai', 'types': ['locality', 'political']}, {'long_name': 'Dubai', 'short_name': 'Dubai', 'types': ['administrative_area_level_1', 'political']}, {'long_name': 'United Arab Emirates', 'short_name': 'AE', 'types': ['country', 'political']}], 'formatted_address': 'Bur Dubai - Dubai - United Arab Emirates', 'geometry': {'bounds': {'northeast': {'lat': 25.2752418, 'lng': 55.3470611}, 'southwest': {'lat': 25.1948451, 'lng': 55.2754784}}, 'location': {'lat': 25.2145565, 'lng': 55.3032906}, 'location_type': 'APPROXIMATE', 'viewport': {'northeast': {'lat': 25.2752418, 'lng': 55.3470611}, 'southwest': {'lat': 25.1948451, 'lng': 55.2754784}}}, 'place_id': 'ChIJYXshnzlDXz4RiypxAjQP118', 'types': ['colloquial_area', 'political']}], 'status': 'OK'}"
1 Sheikh Mohammed bin Rashid Blvd - Downtown Dubai - Dubai - United Arab Emirates,25.197197,55.2743764,ChIJS-JnijRDXz4R4rfO4QLlRf8,"Burj Khalifa ,  Dubai , United Arab Emirates","{'results': [{'address_components': [{'long_name': '1', 'short_name': '1', 'types': ['street_number']}, {'long_name': 'Sheikh Mohammed bin Rashid Boulevard', 'short_name': 'Sheikh Mohammed bin Rashid Blvd', 'types': ['route']}, {'long_name': 'Downtown Dubai', 'short_name': 'Downtown Dubai', 'types': ['political', 'sublocality', 'sublocality_level_1']}, {'long_name': 'Dubai', 'short_name': 'Dubai', 'types': ['locality', 'political']}, {'long_name': 'Dubai', 'short_name': 'Dubai', 'types': ['administrative_area_level_1', 'political']}, {'long_name': 'United Arab Emirates', 'short_name': 'AE', 'types': ['country', 'political']}], 'formatted_address': '1 Sheikh Mohammed bin Rashid Blvd - Downtown Dubai - Dubai - United Arab Emirates', 'geometry': {'location': {'lat': 25.197197, 'lng': 55.27437639999999}, 'location_type': 'ROOFTOP', 'viewport': {'northeast': {'lat': 25.1985459802915, 'lng': 55.2757253802915}, 'southwest': {'lat': 25.1958480197085, 'lng': 55.2730274197085}}}, 'place_id': 'ChIJS-JnijRDXz4R4rfO4QLlRf8', 'plus_code': {'compound_code': '57WF+VQ Dubai - United Arab Emirates', 'global_code': '7HQQ57WF+VQ'}, 'types': ['establishment', 'point_of_interest', 'premise', 'tourist_attraction']}], 'status': 'OK'}"
Oud Metha - Dubai - United Arab Emirates,25.239126,55.3129667,ChIJMRjTWNJCXz4RblYutfJoBfE,"Oud Metha ,  Dubai , United Arab Emirates","{'results': [{'address_components': [{'long_name': 'Oud Metha', 'short_name': 'Oud Metha', 'types': ['political', 'sublocality', 'sublocality_level_1']}, {'long_name': 'Dubai', 'short_name': 'Dubai', 'types': ['locality', 'political']}, {'long_name': 'Dubai', 'short_name': 'Dubai', 'types': ['administrative_area_level_1', 'political']}, {'long_name': 'United Arab Emirates', 'short_name': 'AE', 'types': ['country', 'political']}], 'formatted_address': 'Oud Metha - Dubai - United Arab Emirates', 'geometry': {'bounds': {'northeast': {'lat': 25.2476072, 'lng': 55.3171008}, 'southwest': {'lat': 25.2310917, 'lng': 55.3058673}}, 'location': {'lat': 25.239126, 'lng': 55.3129667}, 'location_type': 'APPROXIMATE', 'viewport': {'northeast': {'lat': 25.2476072, 'lng': 55.3171008}, 'southwest': {'lat': 25.2310917, 'lng': 55.3058673}}}, 'place_id': 'ChIJMRjTWNJCXz4RblYutfJoBfE', 'types': ['political', 'sublocality', 'sublocality_level_1']}], 'status': 'OK'}"
Lahbab - Dubai - United Arab Emirates,25.0421408,55.5912693,ChIJ1QZ8eBCE9T4R3WLN5z_RzDg,"Lehbab ,  Dubai , United Arab Emirates","{'results': [{'address_components': [{'long_name': 'Lahbab', 'short_name': 'Lahbab', 'types': ['locality', 'political']}, {'long_name': 'Dubai', 'short_name': 'Dubai', 'types': ['administrative_area_level_1', 'political']}, {'long_name': 'United Arab Emirates', 'short_name': 'AE', 'types': ['country', 'political']}], 'formatted_address': 'Lahbab - Dubai - United Arab Emirates', 'geometry': {'bounds': {'northeast': {'lat': 25.0682156, 'lng': 55.6170718}, 'southwest': {'lat': 25.0203716, 'lng': 55.56567949999999}}, 'location': {'lat': 25.0421408, 'lng': 55.5912693}, 'location_type': 'APPROXIMATE', 'viewport': {'northeast': {'lat': 25.0682156, 'lng': 55.6170718}, 'southwest': {'lat': 25.0203716, 'lng': 55.56567949999999}}}, 'place_id': 'ChIJ1QZ8eBCE9T4R3WLN5z_RzDg', 'types': ['locality', 'political']}], 'status': 'OK'}"
Za'abeelAl Kifaf - Dubai - United Arab Emirates,25.2346972,55.2963797,ChIJSbp_mNxCXz4Rj_zF4bbHEjU,"Al Kifaf ,  Dubai , United Arab Emirates","{'results': [{'address_components': [{'long_name': 'Al Kifaf', 'short_name': 'Al Kifaf', 'types': ['neighborhood', 'political']}, {'long_name': ""Za'abeel"", 'short_name': ""Za'abeel"", 'types': ['political', 'sublocality', 'sublocality_level_1']}, {'long_name': 'Dubai', 'short_name': 'Dubai', 'types': ['locality', 'political']}, {'long_name': 'Dubai', 'short_name': 'Dubai', 'types': ['administrative_area_level_1', 'political']}, {'long_name': 'United Arab Emirates', 'short_name': 'AE', 'types': ['country', 'political']}], 'formatted_address': ""Za'abeelAl Kifaf - Dubai - United Arab Emirates"", 'geometry': {'bounds': {'northeast': {'lat': 25.239572, 'lng': 55.3041029}, 'southwest': {'lat': 25.2302941, 'lng': 55.29037}}, 'location': {'lat': 25.2346972, 'lng': 55.2963797}, 'location_type': 'APPROXIMATE', 'viewport': {'northeast': {'lat': 25.239572, 'lng': 55.3041029}, 'southwest': {'lat': 25.2302941, 'lng': 55.29037}}}, 'place_id': 'ChIJSbp_mNxCXz4Rj_zF4bbHEjU', 'types': ['neighborhood', 'political']}], 'status': 'OK'}"
Mina Jebel Ali - Dubai - United Arab Emirates,24.9857145,55.0272904,ChIJqQlYMxISXz4RCjDF4Y0MTqE,"Jabal Ali ,  Dubai , United Arab Emirates","{'results': [{'address_components': [{'long_name': 'Mina Jebel Ali', 'short_name': 'Mina Jebel Ali', 'types': ['political', 'sublocality', 'sublocality_level_1']}, {'long_name': 'Dubai', 'short_name': 'Dubai', 'types': ['locality', 'political']}, {'long_name': 'Dubai', 'short_name': 'Dubai', 'types': ['administrative_area_level_1', 'political']}, {'long_name': 'United Arab Emirates', 'short_name': 'AE', 'types': ['country', 'political']}], 'formatted_address': 'Mina Jebel Ali - Dubai - United Arab Emirates', 'geometry': {'bounds': {'northeast': {'lat': 25.0396306, 'lng': 55.15686040000001}, 'southwest': {'lat': 24.8917309, 'lng': 54.9486968}}, 'location': {'lat': 24.9857145, 'lng': 55.0272904}, 'location_type': 'APPROXIMATE', 'viewport': {'northeast': {'lat': 25.0396306, 'lng': 55.15686040000001}, 'southwest': {'lat': 24.8917309, 'lng': 54.9486968}}}, 'place_id': 'ChIJqQlYMxISXz4RCjDF4Y0MTqE', 'types': ['political', 'sublocality', 'sublocality_level_1']}], 'status': 'OK'}"
Al SafaAl Safa 2 - Dubai - United Arab Emirates,25.1586178,55.2245398,ChIJaVOfZCBqXz4RWfomWSr4UOI,"Al Lusaily ,  Dubai , United Arab Emirates","{'results': [{'address_components': [{'long_name': 'Al Safa 2', 'short_name': 'Al Safa 2', 'types': ['neighborhood', 'political']}, {'long_name': 'Al Safa', 'short_name': 'Al Safa', 'types': ['political', 'sublocality', 'sublocality_level_1']}, {'long_name': 'Dubai', 'short_name': 'Dubai', 'types': ['locality', 'political']}, {'long_name': 'Dubai', 'short_name': 'Dubai', 'types': ['administrative_area_level_1', 'political']}, {'long_name': 'United Arab Emirates', 'short_name': 'AE', 'types': ['country', 'political']}], 'formatted_address': 'Al SafaAl Safa 2 - Dubai - United Arab Emirates', 'geometry': {'bounds': {'northeast': {'lat': 25.1693148, 'lng': 55.2342904}, 'southwest': {'lat': 25.1509175, 'lng': 55.2163141}}, 'location': {'lat': 25.1586178, 'lng': 55.2245398}, 'location_type': 'APPROXIMATE', 'viewport': {'northeast': {'lat': 25.1693148, 'lng': 55.2342904}, 'southwest': {'lat': 25.1509175, 'lng': 55.2163141}}}, 'place_id': 'ChIJaVOfZCBqXz4RWfomWSr4UOI', 'types': ['neighborhood', 'political']}], 'status': 'OK'}"
Al Aweer - Dubai - United Arab Emirates,25.1449353,55.501084,ChIJJTsL59qJ9T4RTdjU9AczyMs,"Al Ruwayyah ,  Dubai , United Arab Emirates","{'results': [{'address_components': [{'long_name': 'Al Aweer', 'short_name': 'Al Aweer', 'types': ['locality', 'political']}, {'long_name': 'Dubai', 'short_name': 'Dubai', 'types': ['administrative_area_level_1', 'political']}, {'long_name': 'United Arab Emirates', 'short_name': 'AE', 'types': ['country', 'political']}], 'formatted_address': 'Al Aweer - Dubai - United Arab Emirates', 'geometry': {'location': {'lat': 25.1449353, 'lng': 55.501084}, 'location_type': 'GEOMETRIC_CENTER', 'viewport': {'northeast': {'lat': 25.1462842802915, 'lng': 55.5024329802915}, 'southwest': {'lat': 25.1435863197085, 'lng': 55.4997350197085}}}, 'place_id': 'ChIJJTsL59qJ9T4RTdjU9AczyMs', 'plus_code': {'compound_code': '4GV2+XC Al Aweer - Dubai - United Arab Emirates', 'global_code': '7HQQ4GV2+XC'}, 'types': ['establishment', 'point_of_interest']}], 'status': 'OK'}"
Margham - Sharjah - United Arab Emirates,24.9037042,55.6273332,ChIJ_yKsExV59T4R6-vm_oHWy9s,"Margham ,  Dubai , United Arab Emirates","{'results': [{'address_components': [{'long_name': 'Margham', 'short_name': 'Margham', 'types': ['locality', 'political']}, {'long_name': 'Sharjah', 'short_name': 'Sharjah', 'types': ['administrative_area_level_1', 'political']}, {'long_name': 'United Arab Emirates', 'short_name': 'AE', 'types': ['country', 'political']}], 'formatted_address': 'Margham - Sharjah - United Arab Emirates', 'geometry': {'bounds': {'northeast': {'lat': 24.9198342, 'lng': 55.64334880000001}, 'southwest': {'lat': 24.8869816, 'lng': 55.5976868}}, 'location': {'lat': 24.9037042, 'lng': 55.6273332}, 'location_type': 'APPROXIMATE', 'viewport': {'northeast': {'lat': 24.9198342, 'lng': 55.64334880000001}, 'southwest': {'lat': 24.8869816, 'lng': 55.5976868}}}, 'place_id': 'ChIJ_yKsExV59T4R6-vm_oHWy9s', 'types': ['locality', 'political']}], 'status': 'OK'}"
Al Bada'a - Dubai - United Arab Emirates,25.2247272,55.2687419,ChIJd0RKSFhCXz4RFnWDeOIE2TU,"Al Bada ,  Dubai , United Arab Emirates","{'results': [{'address_components': [{'long_name': ""Al Bada'a"", 'short_name': ""Al Bada'a"", 'types': ['political', 'sublocality', 'sublocality_level_1']}, {'long_name': 'Dubai', 'short_name': 'Dubai', 'types': ['locality', 'political']}, {'long_name': 'Dubai', 'short_name': 'Dubai', 'types': ['administrative_area_level_1', 'political']}, {'long_name': 'United Arab Emirates', 'short_name': 'AE', 'types': ['country', 'political']}], 'formatted_address': ""Al Bada'a - Dubai - United Arab Emirates"", 'geometry': {'bounds': {'northeast': {'lat': 25.2388905, 'lng': 55.2786323}, 'southwest': {'lat': 25.2101128, 'lng': 55.25708539999999}}, 'location': {'lat': 25.2247272, 'lng': 55.26874189999999}, 'location_type': 'APPROXIMATE', 'viewport': {'northeast': {'lat': 25.2388905, 'lng': 55.2786323}, 'southwest': {'lat': 25.2101128, 'lng': 55.25708539999999}}}, 'place_id': 'ChIJd0RKSFhCXz4RFnWDeOIE2TU', 'types': ['political', 'sublocality', 'sublocality_level_1']}], 'status': 'OK'}"
Al Karama - Dubai - United Arab Emirates,25.2489204,55.3060551,ChIJ5Rw5v9dCXz4R3SUtcL5ZLMk,"Al Karama ,  Dubai , United Arab Emirates","{'results': [{'address_components': [{'long_name': 'Al Karama', 'short_name': 'Al Karama', 'types': ['political', 'sublocality', 'sublocality_level_1']}, {'long_name': 'Dubai', 'short_name': 'Dubai', 'types': ['locality', 'political']}, {'long_name': 'Dubai', 'short_name': 'Dubai', 'types': ['administrative_area_level_1', 'political']}, {'long_name': 'United Arab Emirates', 'short_name': 'AE', 'types': ['country', 'political']}], 'formatted_address': 'Al Karama - Dubai - United Arab Emirates', 'geometry': {'bounds': {'northeast': {'lat': 25.2543132, 'lng': 55.3137476}, 'southwest': {'lat': 25.2350504, 'lng': 55.29625429999999}}, 'location': {'lat': 25.2489204, 'lng': 55.30605509999999}, 'location_type': 'APPROXIMATE', 'viewport': {'northeast': {'lat': 25.2543132, 'lng': 55.3137476}, 'southwest': {'lat': 25.2350504, 'lng': 55.29625429999999}}}, 'place_id': 'ChIJ5Rw5v9dCXz4R3SUtcL5ZLMk', 'types': ['political', 'sublocality', 'sublocality_level_1']}], 'status': 'OK'}"
Dubai - United Arab Emirates,25.2048493,55.2707828,ChIJRcbZaklDXz4RYlEphFBu5r0,"Al-Raulah ,  Dubai , United Arab Emirates","{'results': [{'address_components': [{'long_name': 'Dubai', 'short_name': 'Dubai', 'types': ['locality', 'political']}, {'long_name': 'Dubai', 'short_name': 'Dubai', 'types': ['administrative_area_level_1', 'political']}, {'long_name': 'United Arab Emirates', 'short_name': 'AE', 'types': ['country', 'political']}], 'formatted_address': 'Dubai - United Arab Emirates', 'geometry': {'bounds': {'northeast': {'lat': 25.3585607, 'lng': 55.5650393}, 'southwest': {'lat': 24.7921359, 'lng': 54.89045429999999}}, 'location': {'lat': 25.2048493, 'lng': 55.2707828}, 'location_type': 'APPROXIMATE', 'viewport': {'northeast': {'lat': 25.3585607, 'lng': 55.5650393}, 'southwest': {'lat': 24.7921359, 'lng': 54.89045429999999}}}, 'partial_match': True, 'place_id': 'ChIJRcbZaklDXz4RYlEphFBu5r0', 'types': ['locality', 'political']}], 'status': 'OK'}"
Al Musalla Rd - Deira - Dubai - United Arab Emirates,25.273365,55.3065221,ChIJVwkIAE9DXz4RYHYBHCIFyfU,"Al Musalla (Dubai) ,  Dubai , United Arab Emirates","{'results': [{'address_components': [{'long_name': 'Al Musalla Road', 'short_name': 'Al Musalla Rd', 'types': ['route']}, {'long_name': 'Deira', 'short_name': 'Deira', 'types': ['political', 'sublocality', 'sublocality_level_1']}, {'long_name': 'Dubai', 'short_name': 'Dubai', 'types': ['locality', 'political']}, {'long_name': 'Dubai', 'short_name': 'Dubai', 'types': ['administrative_area_level_1', 'political']}, {'long_name': 'United Arab Emirates', 'short_name': 'AE', 'types': ['country', 'political']}], 'formatted_address': 'Al Musalla Rd - Deira - Dubai - United Arab Emirates', 'geometry': {'bounds': {'northeast': {'lat': 25.2771867, 'lng': 55.3081285}, 'southwest': {'lat': 25.2690117, 'lng': 55.3046728}}, 'location': {'lat': 25.273365, 'lng': 55.3065221}, 'location_type': 'GEOMETRIC_CENTER', 'viewport': {'northeast': {'lat': 25.2771867, 'lng': 55.3081285}, 'southwest': {'lat': 25.2690117, 'lng': 55.3046728}}}, 'place_id': 'ChIJVwkIAE9DXz4RYHYBHCIFyfU', 'types': ['route']}], 'status': 'OK'}"
Shindagha City Center - Al Fahidi - دبي - United Arab Emirates,25.264223,55.2870533,ChIJKUeygWtDXz4RBsAjXltOFnk,"Shandagha East ,  Dubai , United Arab Emirates","{'results': [{'address_components': [{'long_name': 'دبي', 'short_name': 'دبي', 'types': ['administrative_area_level_1', 'political']}, {'long_name': 'Al Fahidi', 'short_name': 'Al Fahidi', 'types': ['neighborhood', 'political']}, {'long_name': 'دبي', 'short_name': 'دبي', 'types': ['locality', 'political']}, {'long_name': 'United Arab Emirates', 'short_name': 'AE', 'types': ['country', 'political']}], 'formatted_address': 'Shindagha City Center - Al Fahidi - دبي - United Arab Emirates', 'geometry': {'location': {'lat': 25.264223, 'lng': 55.2870533}, 'location_type': 'GEOMETRIC_CENTER', 'viewport': {'northeast': {'lat': 25.2655719802915, 'lng': 55.28840228029149}, 'southwest': {'lat': 25.26287401970849, 'lng': 55.2857043197085}}}, 'place_id': 'ChIJKUeygWtDXz4RBsAjXltOFnk', 'plus_code': {'compound_code': '777P+MR Dubai - United Arab Emirates', 'global_code': '7HQQ777P+MR'}, 'types': ['electronics_store', 'establishment', 'food', 'grocery_or_supermarket', 'point_of_interest', 'store', 'supermarket']}], 'status': 'OK'}"
Aswaq building - Al Wasl Rd - Al Bada'a - Dubai - United Arab Emirates,25.2143371,55.2589065,ChIJBYIfS11CXz4R6ixC9C7OEPg,"Al Asbaq ,  Dubai , United Arab Emirates","{'results': [{'address_components': [{'long_name': 'Al Wasl Road', 'short_name': 'Al Wasl Rd', 'types': ['route']}, {'long_name': ""Al Bada'a"", 'short_name': ""Al Bada'a"", 'types': ['political', 'sublocality', 'sublocality_level_1']}, {'long_name': 'Dubai', 'short_name': 'Dubai', 'types': ['locality', 'political']}, {'long_name': 'Dubai', 'short_name': 'Dubai', 'types': ['administrative_area_level_1', 'political']}, {'long_name': 'United Arab Emirates', 'short_name': 'AE', 'types': ['country', 'political']}], 'formatted_address': ""Aswaq building - Al Wasl Rd - Al Bada'a - Dubai - United Arab Emirates"", 'geometry': {'location': {'lat': 25.2143371, 'lng': 55.25890649999999}, 'location_type': 'GEOMETRIC_CENTER', 'viewport': {'northeast': {'lat': 25.2156860802915, 'lng': 55.26025548029149}, 'southwest': {'lat': 25.2129881197085, 'lng': 55.25755751970849}}}, 'partial_match': True, 'place_id': 'ChIJBYIfS11CXz4R6ixC9C7OEPg', 'plus_code': {'compound_code': '6775+PH Dubai - United Arab Emirates', 'global_code': '7HQQ6775+PH'}, 'types': ['establishment', 'food', 'grocery_or_supermarket', 'point_of_interest', 'store', 'supermarket']}], 'status': 'OK'}"
Al Fahidi - Dubai - United Arab Emirates,25.2640103,55.2886721,ChIJISX55T9DXz4Rez15A9bLb6g,"Al Fahidi ,  Dubai , United Arab Emirates","{'results': [{'address_components': [{'long_name': 'Al Fahidi', 'short_name': 'Al Fahidi', 'types': ['neighborhood', 'political']}, {'long_name': 'Dubai', 'short_name': 'Dubai', 'types': ['locality', 'political']}, {'long_name': 'Dubai', 'short_name': 'Dubai', 'types': ['administrative_area_level_1', 'political']}, {'long_name': 'United Arab Emirates', 'short_name': 'AE', 'types': ['country', 'political']}], 'formatted_address': 'Al Fahidi - Dubai - United Arab Emirates', 'geometry': {'bounds': {'northeast': {'lat': 25.2685626, 'lng': 55.30148459999999}, 'southwest': {'lat': 25.2582477, 'lng': 55.2842107}}, 'location': {'lat': 25.2640103, 'lng': 55.28867210000001}, 'location_type': 'APPROXIMATE', 'viewport': {'northeast': {'lat': 25.2685626, 'lng': 55.30148459999999}, 'southwest': {'lat': 25.2582477, 'lng': 55.2842107}}}, 'place_id': 'ChIJISX55T9DXz4Rez15A9bLb6g', 'types': ['neighborhood', 'political']}], 'status': 'OK'}"
Al Raffa - Dubai - United Arab Emirates,25.255758,55.2880874,ChIJu7ZyDhdDXz4R6wfJPDoMXk0,"Al Raffa ,  Dubai , United Arab Emirates","{'results': [{'address_components': [{'long_name': 'Al Raffa', 'short_name': 'Al Raffa', 'types': ['political', 'sublocality', 'sublocality_level_1']}, {'long_name': 'Dubai', 'short_name': 'Dubai', 'types': ['locality', 'political']}, {'long_name': 'Dubai', 'short_name': 'Dubai', 'types': ['administrative_area_level_1', 'political']}, {'long_name': 'United Arab Emirates', 'short_name': 'AE', 'types': ['country', 'political']}], 'formatted_address': 'Al Raffa - Dubai - United Arab Emirates', 'geometry': {'bounds': {'northeast': {'lat': 25.260437, 'lng': 55.2967646}, 'southwest': {'lat': 25.2470423, 'lng': 55.28096799999999}}, 'location': {'lat': 25.255758, 'lng': 55.28808739999999}, 'location_type': 'APPROXIMATE', 'viewport': {'northeast': {'lat': 25.260437, 'lng': 55.2967646}, 'southwest': {'lat': 25.2470423, 'lng': 55.28096799999999}}}, 'place_id': 'ChIJu7ZyDhdDXz4R6wfJPDoMXk0', 'types': ['political', 'sublocality', 'sublocality_level_1']}], 'status': 'OK'}"
Al Souq Al Kabeer - Dubai - United Arab Emirates,25.262408,55.2936155,ChIJUQEswz9DXz4RKDSqlMS1gMI,"Al Suq Al Kabeer ,  Dubai , United Arab Emirates","{'results': [{'address_components': [{'long_name': 'Al Souq Al Kabeer', 'short_name': 'Al Souq Al Kabeer', 'types': ['neighborhood', 'political']}, {'long_name': 'Dubai', 'short_name': 'Dubai', 'types': ['locality', 'political']}, {'long_name': 'Dubai', 'short_name': 'Dubai', 'types': ['administrative_area_level_1', 'political']}, {'long_name': 'United Arab Emirates', 'short_name': 'AE', 'types': ['country', 'political']}], 'formatted_address': 'Al Souq Al Kabeer - Dubai - United Arab Emirates', 'geometry': {'bounds': {'northeast': {'lat': 25.2655485, 'lng': 55.30141}, 'southwest': {'lat': 25.2584654, 'lng': 55.2846621}}, 'location': {'lat': 25.262408, 'lng': 55.2936155}, 'location_type': 'APPROXIMATE', 'viewport': {'northeast': {'lat': 25.2655485, 'lng': 55.30141}, 'southwest': {'lat': 25.2584654, 'lng': 55.2846621}}}, 'place_id': 'ChIJUQEswz9DXz4RKDSqlMS1gMI', 'types': ['neighborhood', 'political']}], 'status': 'OK'}"
Al Hamriya - Dubai - United Arab Emirates,25.2601903,55.3046728,ChIJ2-GuozBDXz4RfYGRzIgpiNA,"Al Hamriya ,  Dubai , United Arab Emirates","{'results': [{'address_components': [{'long_name': 'Al Hamriya', 'short_name': 'Al Hamriya', 'types': ['neighborhood', 'political']}, {'long_name': 'Dubai', 'short_name': 'Dubai', 'types': ['locality', 'political']}, {'long_name': 'Dubai', 'short_name': 'Dubai', 'types': ['administrative_area_level_1', 'political']}, {'long_name': 'United Arab Emirates', 'short_name': 'AE', 'types': ['country', 'political']}], 'formatted_address': 'Al Hamriya - Dubai - United Arab Emirates', 'geometry': {'bounds': {'northeast': {'lat': 25.2651893, 'lng': 55.3095102}, 'southwest': {'lat': 25.2550983, 'lng': 55.2980518}}, 'location': {'lat': 25.2601903, 'lng': 55.3046728}, 'location_type': 'APPROXIMATE', 'viewport': {'northeast': {'lat': 25.2651893, 'lng': 55.3095102}, 'southwest': {'lat': 25.2550983, 'lng': 55.2980518}}}, 'place_id': 'ChIJ2-GuozBDXz4RfYGRzIgpiNA', 'types': ['neighborhood', 'political']}], 'status': 'OK'}"
Al Satwa - Dubai - United Arab Emirates,25.21937,55.272887,ChIJ25p_LPVCXz4RYYD1HXfHUv0,"Al Satwa ,  Dubai , United Arab Emirates","{'results': [{'address_components': [{'long_name': 'Al Satwa', 'short_name': 'Al Satwa', 'types': ['political', 'sublocality', 'sublocality_level_1']}, {'long_name': 'Dubai', 'short_name': 'Dubai', 'types': ['locality', 'political']}, {'long_name': 'Dubai', 'short_name': 'Dubai', 'types': ['administrative_area_level_1', 'political']}, {'long_name': 'United Arab Emirates', 'short_name': 'AE', 'types': ['country', 'political']}], 'formatted_address': 'Al Satwa - Dubai - United Arab Emirates', 'geometry': {'bounds': {'northeast': {'lat': 25.2341335, 'lng': 55.2863535}, 'southwest': {'lat': 25.2060982, 'lng': 55.2616495}}, 'location': {'lat': 25.21937, 'lng': 55.272887}, 'location_type': 'APPROXIMATE', 'viewport': {'northeast': {'lat': 25.2341335, 'lng': 55.2863535}, 'southwest': {'lat': 25.2060982, 'lng': 55.2616495}}}, 'place_id': 'ChIJ25p_LPVCXz4RYYD1HXfHUv0', 'types': ['political', 'sublocality', 'sublocality_level_1']}], 'status': 'OK'}"
Nad Al Sheba - Dubai - United Arab Emirates,25.1435458,55.3475331,ChIJ6dKpYH1mXz4RQbaZqBp7hGg,"Nad Al Shiba ,  Dubai , United Arab Emirates","{'results': [{'address_components': [{'long_name': 'Nad Al Sheba', 'short_name': 'Nad Al Sheba', 'types': ['political', 'sublocality', 'sublocality_level_1']}, {'long_name': 'Dubai', 'short_name': 'Dubai', 'types': ['locality', 'political']}, {'long_name': 'Dubai', 'short_name': 'Dubai', 'types': ['administrative_area_level_1', 'political']}, {'long_name': 'United Arab Emirates', 'short_name': 'AE', 'types': ['country', 'political']}], 'formatted_address': 'Nad Al Sheba - Dubai - United Arab Emirates', 'geometry': {'bounds': {'northeast': {'lat': 25.1699688, 'lng': 55.3906834}, 'southwest': {'lat': 25.1202718, 'lng': 55.28786419999999}}, 'location': {'lat': 25.1435458, 'lng': 55.3475331}, 'location_type': 'APPROXIMATE', 'viewport': {'northeast': {'lat': 25.1699688, 'lng': 55.3906834}, 'southwest': {'lat': 25.1202718, 'lng': 55.28786419999999}}}, 'place_id': 'ChIJ6dKpYH1mXz4RQbaZqBp7hGg', 'types': ['political', 'sublocality', 'sublocality_level_1']}], 'status': 'OK'}"
Jumeirah - Dubai - United Arab Emirates,25.2016428,55.2452567,ChIJ_xyxUBRCXz4RPlErL42mVPY,"Jumeirah ,  Dubai , United Arab Emirates","{'results': [{'address_components': [{'long_name': 'Jumeirah', 'short_name': 'Jumeirah', 'types': ['political', 'sublocality', 'sublocality_level_1']}, {'long_name': 'Dubai', 'short_name': 'Dubai', 'types': ['locality', 'political']}, {'long_name': 'Dubai', 'short_name': 'Dubai', 'types': ['administrative_area_level_1', 'political']}, {'long_name': 'United Arab Emirates', 'short_name': 'AE', 'types': ['country', 'political']}], 'formatted_address': 'Jumeirah - Dubai - United Arab Emirates', 'geometry': {'bounds': {'northeast': {'lat': 25.2425956, 'lng': 55.2723475}, 'southwest': {'lat': 25.1700681, 'lng': 55.217256}}, 'location': {'lat': 25.2016428, 'lng': 55.2452567}, 'location_type': 'APPROXIMATE', 'viewport': {'northeast': {'lat': 25.2425956, 'lng': 55.2723475}, 'southwest': {'lat': 25.1700681, 'lng': 55.217256}}}, 'place_id': 'ChIJ_xyxUBRCXz4RPlErL42mVPY', 'types': ['political', 'sublocality', 'sublocality_level_1']}], 'status': 'OK'}"
Umm Suqeim - Dubai - United Arab Emirates,25.1551127,55.2065891,ChIJ7au3KTlqXz4RvVv9tczxk-Q,"Um Suqaim ,  Dubai , United Arab Emirates","{'results': [{'address_components': [{'long_name': 'Umm Suqeim', 'short_name': 'Umm Suqeim', 'types': ['political', 'sublocality', 'sublocality_level_1']}, {'long_name': 'Dubai', 'short_name': 'Dubai', 'types': ['locality', 'political']}, {'long_name': 'Dubai', 'short_name': 'Dubai', 'types': ['administrative_area_level_1', 'political']}, {'long_name': 'United Arab Emirates', 'short_name': 'AE', 'types': ['country', 'political']}], 'formatted_address': 'Umm Suqeim - Dubai - United Arab Emirates', 'geometry': {'bounds': {'northeast': {'lat': 25.1768061, 'lng': 55.227126}, 'southwest': {'lat': 25.1278105, 'lng': 55.1869011}}, 'location': {'lat': 25.1551127, 'lng': 55.2065891}, 'location_type': 'APPROXIMATE', 'viewport': {'northeast': {'lat': 25.1768061, 'lng': 55.227126}, 'southwest': {'lat': 25.1278105, 'lng': 55.1869011}}}, 'place_id': 'ChIJ7au3KTlqXz4RvVv9tczxk-Q', 'types': ['political', 'sublocality', 'sublocality_level_1']}], 'status': 'OK'}"
Al QusaisAl Qusais 3 - Dubai - United Arab Emirates,25.2619867,55.3987166,ChIJewYBbtddXz4RIq8f9fO9Iqc,"Al Qusais ,  Dubai , United Arab Emirates","{'results': [{'address_components': [{'long_name': 'Al Qusais 3', 'short_name': 'Al Qusais 3', 'types': ['neighborhood', 'political']}, {'long_name': 'Al Qusais', 'short_name': 'Al Qusais', 'types': ['political', 'sublocality', 'sublocality_level_1']}, {'long_name': 'Dubai', 'short_name': 'Dubai', 'types': ['locality', 'political']}, {'long_name': 'Dubai', 'short_name': 'Dubai', 'types': ['administrative_area_level_1', 'political']}, {'long_name': 'United Arab Emirates', 'short_name': 'AE', 'types': ['country', 'political']}], 'formatted_address': 'Al QusaisAl Qusais 3 - Dubai - United Arab Emirates', 'geometry': {'bounds': {'northeast': {'lat': 25.2706239, 'lng': 55.4084369}, 'southwest': {'lat': 25.2530987, 'lng': 55.3904592}}, 'location': {'lat': 25.2619867, 'lng': 55.3987166}, 'location_type': 'APPROXIMATE', 'viewport': {'northeast': {'lat': 25.2706239, 'lng': 55.4084369}, 'southwest': {'lat': 25.2530987, 'lng': 55.3904592}}}, 'place_id': 'ChIJewYBbtddXz4RIq8f9fO9Iqc', 'types': ['neighborhood', 'political']}], 'status': 'OK'}"
Hor Al Anz East - Dubai - United Arab Emirates,25.2830909,55.351682,ChIJT_1Aoo5cXz4R36wKDfYA9l8,"Hor Al Anz East ,  Dubai , United Arab Emirates","{'results': [{'address_components': [{'long_name': 'Hor Al Anz East', 'short_name': 'Hor Al Anz East', 'types': ['political', 'sublocality', 'sublocality_level_1']}, {'long_name': 'Dubai', 'short_name': 'Dubai', 'types': ['locality', 'political']}, {'long_name': 'Dubai', 'short_name': 'Dubai', 'types': ['administrative_area_level_1', 'political']}, {'long_name': 'United Arab Emirates', 'short_name': 'AE', 'types': ['country', 'political']}], 'formatted_address': 'Hor Al Anz East - Dubai - United Arab Emirates', 'geometry': {'bounds': {'northeast': {'lat': 25.2939444, 'lng': 55.359413}, 'southwest': {'lat': 25.2756483, 'lng': 55.343821}}, 'location': {'lat': 25.2830909, 'lng': 55.351682}, 'location_type': 'APPROXIMATE', 'viewport': {'northeast': {'lat': 25.2939444, 'lng': 55.359413}, 'southwest': {'lat': 25.2756483, 'lng': 55.343821}}}, 'place_id': 'ChIJT_1Aoo5cXz4R36wKDfYA9l8', 'types': ['political', 'sublocality', 'sublocality_level_1']}], 'status': 'OK'}"
Nadd Al Hamar - Dubai - United Arab Emirates,25.2004324,55.3862638,ChIJVwSZlj5nXz4RUnPLxdaDXDU,"Nad Al Hamar ,  Dubai , United Arab Emirates","{'results': [{'address_components': [{'long_name': 'Nadd Al Hamar', 'short_name': 'Nadd Al Hamar', 'types': ['political', 'sublocality', 'sublocality_level_1']}, {'long_name': 'Dubai', 'short_name': 'Dubai', 'types': ['locality', 'political']}, {'long_name': 'Dubai', 'short_name': 'Dubai', 'types': ['administrative_area_level_1', 'political']}, {'long_name': 'United Arab Emirates', 'short_name': 'AE', 'types': ['country', 'political']}], 'formatted_address': 'Nadd Al Hamar - Dubai - United Arab Emirates', 'geometry': {'bounds': {'northeast': {'lat': 25.2162011, 'lng': 55.4025507}, 'southwest': {'lat': 25.1800879, 'lng': 55.3708363}}, 'location': {'lat': 25.2004324, 'lng': 55.3862638}, 'location_type': 'APPROXIMATE', 'viewport': {'northeast': {'lat': 25.2162011, 'lng': 55.4025507}, 'southwest': {'lat': 25.1800879, 'lng': 55.3708363}}}, 'place_id': 'ChIJVwSZlj5nXz4RUnPLxdaDXDU', 'types': ['political', 'sublocality', 'sublocality_level_1']}], 'status': 'OK'}"
MuhaisnahMuhaisnah 3 - Dubai - United Arab Emirates,25.2712259,55.4042518,ChIJa8HS1X9eXz4RNQdllG6rThQ,"Muhaisna ,  Dubai , United Arab Emirates","{'results': [{'address_components': [{'long_name': 'Muhaisnah 3', 'short_name': 'Muhaisnah 3', 'types': ['neighborhood', 'political']}, {'long_name': 'Muhaisnah', 'short_name': 'Muhaisnah', 'types': ['political', 'sublocality', 'sublocality_level_1']}, {'long_name': 'Dubai', 'short_name': 'Dubai', 'types': ['locality', 'political']}, {'long_name': 'Dubai', 'short_name': 'Dubai', 'types': ['administrative_area_level_1', 'political']}, {'long_name': 'United Arab Emirates', 'short_name': 'AE', 'types': ['country', 'political']}], 'formatted_address': 'MuhaisnahMuhaisnah 3 - Dubai - United Arab Emirates', 'geometry': {'bounds': {'northeast': {'lat': 25.2805607, 'lng': 55.414324}, 'southwest': {'lat': 25.2647661, 'lng': 55.39647069999999}}, 'location': {'lat': 25.2712259, 'lng': 55.4042518}, 'location_type': 'APPROXIMATE', 'viewport': {'northeast': {'lat': 25.2805607, 'lng': 55.414324}, 'southwest': {'lat': 25.2647661, 'lng': 55.39647069999999}}}, 'place_id': 'ChIJa8HS1X9eXz4RNQdllG6rThQ', 'types': ['neighborhood', 'political']}], 'status': 'OK'}"
Hor Al Anz - Dubai - United Arab Emirates,25.2769983,55.3337049,ChIJeZRZbJVcXz4RTcg6O_XNsM0,"Hor Al Anz ,  Dubai , United Arab Emirates","{'results': [{'address_components': [{'long_name': 'Hor Al Anz', 'short_name': 'Hor Al Anz', 'types': ['political', 'sublocality', 'sublocality_level_1']}, {'long_name': 'Dubai', 'short_name': 'Dubai', 'types': ['locality', 'political']}, {'long_name': 'Dubai', 'short_name': 'Dubai', 'types': ['administrative_area_level_1', 'political']}, {'long_name': 'United Arab Emirates', 'short_name': 'AE', 'types': ['country', 'political']}], 'formatted_address': 'Hor Al Anz - Dubai - United Arab Emirates', 'geometry': {'bounds': {'northeast': {'lat': 25.2833495, 'lng': 55.3473708}, 'southwest': {'lat': 25.2710889, 'lng': 55.32782959999999}}, 'location': {'lat': 25.2769983, 'lng': 55.3337049}, 'location_type': 'APPROXIMATE', 'viewport': {'northeast': {'lat': 25.2833495, 'lng': 55.3473708}, 'southwest': {'lat': 25.2710889, 'lng': 55.32782959999999}}}, 'place_id': 'ChIJeZRZbJVcXz4RTcg6O_XNsM0', 'types': ['political', 'sublocality', 'sublocality_level_1']}], 'status': 'OK'}"
Al Mamzar - Dubai - United Arab Emirates,25.3058229,55.3447672,ChIJDRT2bnxbXz4Rao6kmuXJScU,"Al Mamzer ,  Dubai , United Arab Emirates","{'results': [{'address_components': [{'long_name': 'Al Mamzar', 'short_name': 'Al Mamzar', 'types': ['political', 'sublocality', 'sublocality_level_1']}, {'long_name': 'Dubai', 'short_name': 'Dubai', 'types': ['locality', 'political']}, {'long_name': 'Dubai', 'short_name': 'Dubai', 'types': ['administrative_area_level_1', 'political']}, {'long_name': 'United Arab Emirates', 'short_name': 'AE', 'types': ['country', 'political']}], 'formatted_address': 'Al Mamzar - Dubai - United Arab Emirates', 'geometry': {'bounds': {'northeast': {'lat': 25.327954, 'lng': 55.3634311}, 'southwest': {'lat': 25.2898894, 'lng': 55.3364134}}, 'location': {'lat': 25.3058229, 'lng': 55.3447672}, 'location_type': 'APPROXIMATE', 'viewport': {'northeast': {'lat': 25.327954, 'lng': 55.3634311}, 'southwest': {'lat': 25.2898894, 'lng': 55.3364134}}}, 'place_id': 'ChIJDRT2bnxbXz4Rao6kmuXJScU', 'types': ['political', 'sublocality', 'sublocality_level_1']}], 'status': 'OK'}"
Shindagha City Center - Al Fahidi - دبي - United Arab Emirates,25.264223,55.2870533,ChIJKUeygWtDXz4RBsAjXltOFnk,"Shandagha West ,  Dubai , United Arab Emirates","{'results': [{'address_components': [{'long_name': 'دبي', 'short_name': 'دبي', 'types': ['administrative_area_level_1', 'political']}, {'long_name': 'Al Fahidi', 'short_name': 'Al Fahidi', 'types': ['neighborhood', 'political']}, {'long_name': 'دبي', 'short_name': 'دبي', 'types': ['locality', 'political']}, {'long_name': 'United Arab Emirates', 'short_name': 'AE', 'types': ['country', 'political']}], 'formatted_address': 'Shindagha City Center - Al Fahidi - دبي - United Arab Emirates', 'geometry': {'location': {'lat': 25.264223, 'lng': 55.2870533}, 'location_type': 'GEOMETRIC_CENTER', 'viewport': {'northeast': {'lat': 25.2655719802915, 'lng': 55.28840228029149}, 'southwest': {'lat': 25.26287401970849, 'lng': 55.2857043197085}}}, 'place_id': 'ChIJKUeygWtDXz4RBsAjXltOFnk', 'plus_code': {'compound_code': '777P+MR Dubai - United Arab Emirates', 'global_code': '7HQQ777P+MR'}, 'types': ['electronics_store', 'establishment', 'food', 'grocery_or_supermarket', 'point_of_interest', 'store', 'supermarket']}], 'status': 'OK'}"
Abu Hail - Dubai - United Arab Emirates,25.2858687,55.3281742,ChIJpSBFmqRcXz4RqJl3Ey1H7bo,"Abu Hail ,  Dubai , United Arab Emirates","{'results': [{'address_components': [{'long_name': 'Abu Hail', 'short_name': 'Abu Hail', 'types': ['political', 'sublocality', 'sublocality_level_1']}, {'long_name': 'Dubai', 'short_name': 'Dubai', 'types': ['locality', 'political']}, {'long_name': 'Dubai', 'short_name': 'Dubai', 'types': ['administrative_area_level_1', 'political']}, {'long_name': 'United Arab Emirates', 'short_name': 'AE', 'types': ['country', 'political']}], 'formatted_address': 'Abu Hail - Dubai - United Arab Emirates', 'geometry': {'bounds': {'northeast': {'lat': 25.2920432, 'lng': 55.3380231}, 'southwest': {'lat': 25.2791606, 'lng': 55.3225943}}, 'location': {'lat': 25.2858687, 'lng': 55.3281742}, 'location_type': 'APPROXIMATE', 'viewport': {'northeast': {'lat': 25.2920432, 'lng': 55.3380231}, 'southwest': {'lat': 25.2791606, 'lng': 55.3225943}}}, 'place_id': 'ChIJpSBFmqRcXz4RqJl3Ey1H7bo', 'types': ['political', 'sublocality', 'sublocality_level_1']}], 'status': 'OK'}"
Mirdif - Dubai - United Arab Emirates,25.2196159,55.4194753,ChIJn5OI6L1gXz4RhvaoJpnARSI,"Mirdif ,  Dubai , United Arab Emirates","{'results': [{'address_components': [{'long_name': 'Mirdif', 'short_name': 'Mirdif', 'types': ['political', 'sublocality', 'sublocality_level_1']}, {'long_name': 'Dubai', 'short_name': 'Dubai', 'types': ['locality', 'political']}, {'long_name': 'Dubai', 'short_name': 'Dubai', 'types': ['administrative_area_level_1', 'political']}, {'long_name': 'United Arab Emirates', 'short_name': 'AE', 'types': ['country', 'political']}], 'formatted_address': 'Mirdif - Dubai - United Arab Emirates', 'geometry': {'bounds': {'northeast': {'lat': 25.2353532, 'lng': 55.4427513}, 'southwest': {'lat': 25.207256, 'lng': 55.4045009}}, 'location': {'lat': 25.2196159, 'lng': 55.41947529999999}, 'location_type': 'APPROXIMATE', 'viewport': {'northeast': {'lat': 25.2353532, 'lng': 55.4427513}, 'southwest': {'lat': 25.207256, 'lng': 55.4045009}}}, 'place_id': 'ChIJn5OI6L1gXz4RhvaoJpnARSI', 'types': ['political', 'sublocality', 'sublocality_level_1']}], 'status': 'OK'}"
MuhaisnahMuhaisnah 3 - Dubai - United Arab Emirates,25.2712259,55.4042518,ChIJa8HS1X9eXz4RNQdllG6rThQ,"Al-Muhaisnah North ,  Dubai , United Arab Emirates","{'results': [{'address_components': [{'long_name': 'Muhaisnah 3', 'short_name': 'Muhaisnah 3', 'types': ['neighborhood', 'political']}, {'long_name': 'Muhaisnah', 'short_name': 'Muhaisnah', 'types': ['political', 'sublocality', 'sublocality_level_1']}, {'long_name': 'Dubai', 'short_name': 'Dubai', 'types': ['locality', 'political']}, {'long_name': 'Dubai', 'short_name': 'Dubai', 'types': ['administrative_area_level_1', 'political']}, {'long_name': 'United Arab Emirates', 'short_name': 'AE', 'types': ['country', 'political']}], 'formatted_address': 'MuhaisnahMuhaisnah 3 - Dubai - United Arab Emirates', 'geometry': {'bounds': {'northeast': {'lat': 25.2805607, 'lng': 55.414324}, 'southwest': {'lat': 25.2647661, 'lng': 55.39647069999999}}, 'location': {'lat': 25.2712259, 'lng': 55.4042518}, 'location_type': 'APPROXIMATE', 'viewport': {'northeast': {'lat': 25.2805607, 'lng': 55.414324}, 'southwest': {'lat': 25.2647661, 'lng': 55.39647069999999}}}, 'place_id': 'ChIJa8HS1X9eXz4RNQdllG6rThQ', 'types': ['neighborhood', 'political']}], 'status': 'OK'}"
Al Khawaneej - Dubai - United Arab Emirates,25.2327717,55.5081012,ChIJ0-y8Xu2K9T4RzbKnr6DHFyE,"Al Khawaneej ,  Dubai , United Arab Emirates","{'results': [{'address_components': [{'long_name': 'Al Khawaneej', 'short_name': 'Al Khawaneej', 'types': ['political', 'sublocality', 'sublocality_level_1']}, {'long_name': 'Dubai', 'short_name': 'Dubai', 'types': ['locality', 'political']}, {'long_name': 'Dubai', 'short_name': 'Dubai', 'types': ['administrative_area_level_1', 'political']}, {'long_name': 'United Arab Emirates', 'short_name': 'AE', 'types': ['country', 'political']}], 'formatted_address': 'Al Khawaneej - Dubai - United Arab Emirates', 'geometry': {'bounds': {'northeast': {'lat': 25.2672852, 'lng': 55.56472789999999}, 'southwest': {'lat': 25.1919715, 'lng': 55.4647778}}, 'location': {'lat': 25.2327717, 'lng': 55.5081012}, 'location_type': 'APPROXIMATE', 'viewport': {'northeast': {'lat': 25.2672852, 'lng': 55.56472789999999}, 'southwest': {'lat': 25.1919715, 'lng': 55.4647778}}}, 'place_id': 'ChIJ0-y8Xu2K9T4RzbKnr6DHFyE', 'types': ['political', 'sublocality', 'sublocality_level_1']}], 'status': 'OK'}"
Umm Ramool - Dubai - United Arab Emirates,25.2289254,55.3668963,ChIJ4Xj_x4RdXz4RPgFS2Ms3b94,"Um Ramool ,  Dubai , United Arab Emirates","{'results': [{'address_components': [{'long_name': 'Umm Ramool', 'short_name': 'Umm Ramool', 'types': ['political', 'sublocality', 'sublocality_level_1']}, {'long_name': 'Dubai', 'short_name': 'Dubai', 'types': ['locality', 'political']}, {'long_name': 'Dubai', 'short_name': 'Dubai', 'types': ['administrative_area_level_1', 'political']}, {'long_name': 'United Arab Emirates', 'short_name': 'AE', 'types': ['country', 'political']}], 'formatted_address': 'Umm Ramool - Dubai - United Arab Emirates', 'geometry': {'bounds': {'northeast': {'lat': 25.2409592, 'lng': 55.3769972}, 'southwest': {'lat': 25.2182199, 'lng': 55.3527267}}, 'location': {'lat': 25.2289254, 'lng': 55.3668963}, 'location_type': 'APPROXIMATE', 'viewport': {'northeast': {'lat': 25.2409592, 'lng': 55.3769972}, 'southwest': {'lat': 25.2182199, 'lng': 55.3527267}}}, 'place_id': 'ChIJ4Xj_x4RdXz4RPgFS2Ms3b94', 'types': ['political', 'sublocality', 'sublocality_level_1']}], 'status': 'OK'}"
Garhoud - Dubai - United Arab Emirates,25.2400295,55.350299,ChIJ3alnGgxdXz4RD9GT002aYeE,"Al Garhoud ,  Dubai , United Arab Emirates","{'results': [{'address_components': [{'long_name': 'Garhoud', 'short_name': 'Garhoud', 'types': ['political', 'sublocality', 'sublocality_level_1']}, {'long_name': 'Dubai', 'short_name': 'Dubai', 'types': ['locality', 'political']}, {'long_name': 'Dubai', 'short_name': 'Dubai', 'types': ['administrative_area_level_1', 'political']}, {'long_name': 'United Arab Emirates', 'short_name': 'AE', 'types': ['country', 'political']}], 'formatted_address': 'Garhoud - Dubai - United Arab Emirates', 'geometry': {'bounds': {'northeast': {'lat': 25.256579, 'lng': 55.3685577}, 'southwest': {'lat': 25.2301056, 'lng': 55.3358503}}, 'location': {'lat': 25.2400295, 'lng': 55.350299}, 'location_type': 'APPROXIMATE', 'viewport': {'northeast': {'lat': 25.256579, 'lng': 55.3685577}, 'southwest': {'lat': 25.2301056, 'lng': 55.3358503}}}, 'place_id': 'ChIJ3alnGgxdXz4RD9GT002aYeE', 'types': ['political', 'sublocality', 'sublocality_level_1']}], 'status': 'OK'}"
Al Aweer - Dubai - United Arab Emirates,25.1784957,55.545002,ChIJz0ZOqr2J9T4RwbPmEd0F-fU,"Al-Aweer ,  Dubai , United Arab Emirates","{'results': [{'address_components': [{'long_name': 'Al Aweer', 'short_name': 'Al Aweer', 'types': ['locality', 'political']}, {'long_name': 'Dubai', 'short_name': 'Dubai', 'types': ['administrative_area_level_1', 'political']}, {'long_name': 'United Arab Emirates', 'short_name': 'AE', 'types': ['country', 'political']}], 'formatted_address': 'Al Aweer - Dubai - United Arab Emirates', 'geometry': {'bounds': {'northeast': {'lat': 25.2135808, 'lng': 55.6170349}, 'southwest': {'lat': 25.1295889, 'lng': 55.4933294}}, 'location': {'lat': 25.1784957, 'lng': 55.545002}, 'location_type': 'APPROXIMATE', 'viewport': {'northeast': {'lat': 25.2135808, 'lng': 55.6170349}, 'southwest': {'lat': 25.1295889, 'lng': 55.4933294}}}, 'place_id': 'ChIJz0ZOqr2J9T4RwbPmEd0F-fU', 'types': ['locality', 'political']}], 'status': 'OK'}"
Al Mizhar - Dubai - United Arab Emirates,25.2491579,55.4526995,ChIJ9VEPyipeXz4REwWHVoMWXFo,"Al Mezhar ,  Dubai , United Arab Emirates","{'results': [{'address_components': [{'long_name': 'Al Mizhar', 'short_name': 'Al Mizhar', 'types': ['political', 'sublocality', 'sublocality_level_1']}, {'long_name': 'Dubai', 'short_name': 'Dubai', 'types': ['locality', 'political']}, {'long_name': 'Dubai', 'short_name': 'Dubai', 'types': ['administrative_area_level_1', 'political']}, {'long_name': 'United Arab Emirates', 'short_name': 'AE', 'types': ['country', 'political']}], 'formatted_address': 'Al Mizhar - Dubai - United Arab Emirates', 'geometry': {'bounds': {'northeast': {'lat': 25.2585026, 'lng': 55.4693829}, 'southwest': {'lat': 25.2290427, 'lng': 55.4243414}}, 'location': {'lat': 25.2491579, 'lng': 55.45269949999999}, 'location_type': 'APPROXIMATE', 'viewport': {'northeast': {'lat': 25.2585026, 'lng': 55.4693829}, 'southwest': {'lat': 25.2290427, 'lng': 55.4243414}}}, 'place_id': 'ChIJ9VEPyipeXz4REwWHVoMWXFo', 'types': ['political', 'sublocality', 'sublocality_level_1']}], 'status': 'OK'}"
Port Saeed - Dubai - United Arab Emirates,25.2513145,55.3295568,ChIJn8kCaSZdXz4Rkuc9hXqlJaQ,"Port Saeed ,  Dubai , United Arab Emirates","{'results': [{'address_components': [{'long_name': 'Port Saeed', 'short_name': 'Port Saeed', 'types': ['political', 'sublocality', 'sublocality_level_1']}, {'long_name': 'Dubai', 'short_name': 'Dubai', 'types': ['locality', 'political']}, {'long_name': 'Dubai', 'short_name': 'Dubai', 'types': ['administrative_area_level_1', 'political']}, {'long_name': 'United Arab Emirates', 'short_name': 'AE', 'types': ['country', 'political']}], 'formatted_address': 'Port Saeed - Dubai - United Arab Emirates', 'geometry': {'bounds': {'northeast': {'lat': 25.2674997, 'lng': 55.3410004}, 'southwest': {'lat': 25.2345586, 'lng': 55.3023485}}, 'location': {'lat': 25.2513145, 'lng': 55.3295568}, 'location_type': 'APPROXIMATE', 'viewport': {'northeast': {'lat': 25.2674997, 'lng': 55.3410004}, 'southwest': {'lat': 25.2345586, 'lng': 55.3023485}}}, 'place_id': 'ChIJn8kCaSZdXz4Rkuc9hXqlJaQ', 'types': ['political', 'sublocality', 'sublocality_level_1']}], 'status': 'OK'}"
"Dubai Gold Souq,Deira,Behind Malabar Gold Showroom - DeiraAl Sabkha - Dubai - United Arab Emirates",25.2727965,55.2988055,ChIJZa5W3EZDXz4RObPzapqA6JM,"Al-Shumaal ,  Dubai , United Arab Emirates","{'results': [{'address_components': [{'long_name': 'Dubai', 'short_name': 'Dubai', 'types': ['administrative_area_level_1', 'political']}, {'long_name': 'Al Sabkha', 'short_name': 'Al Sabkha', 'types': ['neighborhood', 'political']}, {'long_name': 'Deira', 'short_name': 'Deira', 'types': ['political', 'sublocality', 'sublocality_level_1']}, {'long_name': 'Dubai', 'short_name': 'Dubai', 'types': ['locality', 'political']}, {'long_name': 'United Arab Emirates', 'short_name': 'AE', 'types': ['country', 'political']}], 'formatted_address': 'Dubai Gold Souq,Deira,Behind Malabar Gold Showroom - DeiraAl Sabkha - Dubai - United Arab Emirates', 'geometry': {'location': {'lat': 25.2727965, 'lng': 55.2988055}, 'location_type': 'GEOMETRIC_CENTER', 'viewport': {'northeast': {'lat': 25.2741454802915, 'lng': 55.3001544802915}, 'southwest': {'lat': 25.2714475197085, 'lng': 55.2974565197085}}}, 'partial_match': True, 'place_id': 'ChIJZa5W3EZDXz4RObPzapqA6JM', 'plus_code': {'compound_code': '77FX+4G Dubai - United Arab Emirates', 'global_code': '7HQQ77FX+4G'}, 'types': ['establishment', 'lodging', 'point_of_interest']}], 'status': 'OK'}"
Souq Nadd Rashid - 46 33 A St - Al Rashidiya - Dubai - United Arab Emirates,25.2259063,55.3857068,ChIJtV8jV19nXz4RE2buhvott5Q,"Nad Rashid ,  Dubai , United Arab Emirates","{'results': [{'address_components': [{'long_name': 'Souq Nadd Rashid', 'short_name': 'Souq Nadd Rashid', 'types': ['premise']}, {'long_name': '46', 'short_name': '46', 'types': ['street_number']}, {'long_name': '33 A Street', 'short_name': '33 A St', 'types': ['route']}, {'long_name': 'Al Rashidiya', 'short_name': 'Al Rashidiya', 'types': ['political', 'sublocality', 'sublocality_level_1']}, {'long_name': 'Dubai', 'short_name': 'Dubai', 'types': ['locality', 'political']}, {'long_name': 'Dubai', 'short_name': 'Dubai', 'types': ['administrative_area_level_1', 'political']}, {'long_name': 'United Arab Emirates', 'short_name': 'AE', 'types': ['country', 'political']}], 'formatted_address': 'Souq Nadd Rashid - 46 33 A St - Al Rashidiya - Dubai - United Arab Emirates', 'geometry': {'location': {'lat': 25.2259063, 'lng': 55.38570679999999}, 'location_type': 'ROOFTOP', 'viewport': {'northeast': {'lat': 25.2272552802915, 'lng': 55.3870557802915}, 'southwest': {'lat': 25.2245573197085, 'lng': 55.3843578197085}}}, 'place_id': 'ChIJtV8jV19nXz4RE2buhvott5Q', 'plus_code': {'compound_code': '69GP+97 Dubai - United Arab Emirates', 'global_code': '7HQQ69GP+97'}, 'types': ['establishment', 'point_of_interest', 'shopping_mall']}], 'status': 'OK'}"
Al TwarAl Twar 2 - Dubai - United Arab Emirates,25.2620038,55.3793463,ChIJRZH098ldXz4R7m8FjFJY1R8,"Al-Tawar ,  Dubai , United Arab Emirates","{'results': [{'address_components': [{'long_name': 'Al Twar 2', 'short_name': 'Al Twar 2', 'types': ['neighborhood', 'political']}, {'long_name': 'Al Twar', 'short_name': 'Al Twar', 'types': ['political', 'sublocality', 'sublocality_level_1']}, {'long_name': 'Dubai', 'short_name': 'Dubai', 'types': ['locality', 'political']}, {'long_name': 'Dubai', 'short_name': 'Dubai', 'types': ['administrative_area_level_1', 'political']}, {'long_name': 'United Arab Emirates', 'short_name': 'AE', 'types': ['country', 'political']}], 'formatted_address': 'Al TwarAl Twar 2 - Dubai - United Arab Emirates', 'geometry': {'bounds': {'northeast': {'lat': 25.2669386, 'lng': 55.3885289}, 'southwest': {'lat': 25.2554692, 'lng': 55.3744946}}, 'location': {'lat': 25.2620038, 'lng': 55.37934629999999}, 'location_type': 'APPROXIMATE', 'viewport': {'northeast': {'lat': 25.2669386, 'lng': 55.3885289}, 'southwest': {'lat': 25.2554692, 'lng': 55.3744946}}}, 'place_id': 'ChIJRZH098ldXz4R7m8FjFJY1R8', 'types': ['neighborhood', 'political']}], 'status': 'OK'}"
Al Nakhal Street - Near Fish Roundabout - Naif - Dubai - United Arab Emirates,25.27197,55.315505,ChIJjQodIbVcXz4R9UeWJ-i-dwQ,"Burj Nahar ,  Dubai , United Arab Emirates","{'results': [{'address_components': [{'long_name': 'Near', 'short_name': 'Near', 'types': ['street_number']}, {'long_name': 'Fish Roundabout', 'short_name': 'Fish Roundabout', 'types': ['route']}, {'long_name': 'Naif', 'short_name': 'Naif', 'types': ['political', 'sublocality', 'sublocality_level_1']}, {'long_name': 'Dubai', 'short_name': 'Dubai', 'types': ['locality', 'political']}, {'long_name': 'Dubai', 'short_name': 'Dubai', 'types': ['administrative_area_level_1', 'political']}, {'long_name': 'United Arab Emirates', 'short_name': 'AE', 'types': ['country', 'political']}], 'formatted_address': 'Al Nakhal Street - Near Fish Roundabout - Naif - Dubai - United Arab Emirates', 'geometry': {'location': {'lat': 25.27197, 'lng': 55.31550499999999}, 'location_type': 'ROOFTOP', 'viewport': {'northeast': {'lat': 25.2733189802915, 'lng': 55.31685398029149}, 'southwest': {'lat': 25.2706210197085, 'lng': 55.31415601970849}}}, 'place_id': 'ChIJjQodIbVcXz4R9UeWJ-i-dwQ', 'plus_code': {'compound_code': '78C8+Q6 Dubai - United Arab Emirates', 'global_code': '7HQQ78C8+Q6'}, 'types': ['establishment', 'lodging', 'point_of_interest']}], 'status': 'OK'}"
Al Baraha - Dubai - United Arab Emirates,25.2819897,55.3184964,ChIJqQ31v61cXz4RgjC814Bg3iU,"Al Baraha ,  Dubai , United Arab Emirates","{'results': [{'address_components': [{'long_name': 'Al Baraha', 'short_name': 'Al Baraha', 'types': ['political', 'sublocality', 'sublocality_level_1']}, {'long_name': 'Dubai', 'short_name': 'Dubai', 'types': ['locality', 'political']}, {'long_name': 'Dubai', 'short_name': 'Dubai', 'types': ['administrative_area_level_1', 'political']}, {'long_name': 'United Arab Emirates', 'short_name': 'AE', 'types': ['country', 'political']}], 'formatted_address': 'Al Baraha - Dubai - United Arab Emirates', 'geometry': {'bounds': {'northeast': {'lat': 25.287377, 'lng': 55.3270357}, 'southwest': {'lat': 25.2762896, 'lng': 55.3100627}}, 'location': {'lat': 25.2819897, 'lng': 55.3184964}, 'location_type': 'APPROXIMATE', 'viewport': {'northeast': {'lat': 25.287377, 'lng': 55.3270357}, 'southwest': {'lat': 25.2762896, 'lng': 55.3100627}}}, 'place_id': 'ChIJqQ31v61cXz4RgjC814Bg3iU', 'types': ['political', 'sublocality', 'sublocality_level_1']}], 'status': 'OK'}"
DeiraRiggat Al Buteen - Dubai - United Arab Emirates,25.2580614,55.3233351,ChIJJ6W7_NFcXz4R4NqmeXOLQqc,"Al Buteen ,  Dubai , United Arab Emirates","{'results': [{'address_components': [{'long_name': 'Riggat Al Buteen', 'short_name': 'Riggat Al Buteen', 'types': ['neighborhood', 'political']}, {'long_name': 'Deira', 'short_name': 'Deira', 'types': ['political', 'sublocality', 'sublocality_level_1']}, {'long_name': 'Dubai', 'short_name': 'Dubai', 'types': ['locality', 'political']}, {'long_name': 'Dubai', 'short_name': 'Dubai', 'types': ['administrative_area_level_1', 'political']}, {'long_name': 'United Arab Emirates', 'short_name': 'AE', 'types': ['country', 'political']}], 'formatted_address': 'DeiraRiggat Al Buteen - Dubai - United Arab Emirates', 'geometry': {'bounds': {'northeast': {'lat': 25.2644471, 'lng': 55.3259414}, 'southwest': {'lat': 25.2529544, 'lng': 55.3121148}}, 'location': {'lat': 25.2580614, 'lng': 55.3233351}, 'location_type': 'APPROXIMATE', 'viewport': {'northeast': {'lat': 25.2644471, 'lng': 55.3259414}, 'southwest': {'lat': 25.2529544, 'lng': 55.3121148}}}, 'place_id': 'ChIJJ6W7_NFcXz4R4NqmeXOLQqc', 'types': ['neighborhood', 'political']}], 'status': 'OK'}"
"Al Safoor Building, Al Hisn Street, Meena Bazar, Bur Dubai - Al Fahidi - Dubai - United Arab Emirates",25.260368,55.294828,ChIJm-IdXz5DXz4RtI2KzlcAYeI,"Al Baharna ,  Dubai , United Arab Emirates","{'results': [{'address_components': [{'long_name': 'Dubai', 'short_name': 'Dubai', 'types': ['administrative_area_level_1', 'political']}, {'long_name': 'Al Fahidi', 'short_name': 'Al Fahidi', 'types': ['neighborhood', 'political']}, {'long_name': 'Dubai', 'short_name': 'Dubai', 'types': ['locality', 'political']}, {'long_name': 'United Arab Emirates', 'short_name': 'AE', 'types': ['country', 'political']}], 'formatted_address': 'Al Safoor Building, Al Hisn Street, Meena Bazar, Bur Dubai - Al Fahidi - Dubai - United Arab Emirates', 'geometry': {'location': {'lat': 25.260368, 'lng': 55.294828}, 'location_type': 'GEOMETRIC_CENTER', 'viewport': {'northeast': {'lat': 25.26171698029151, 'lng': 55.2961769802915}, 'southwest': {'lat': 25.2590190197085, 'lng': 55.2934790197085}}}, 'place_id': 'ChIJm-IdXz5DXz4RtI2KzlcAYeI', 'plus_code': {'compound_code': '776V+4W Dubai - United Arab Emirates', 'global_code': '7HQQ776V+4W'}, 'types': ['establishment', 'food', 'point_of_interest', 'restaurant']}], 'status': 'OK'}"
Dubai - United Arab Emirates,25.2048493,55.2707828,ChIJRcbZaklDXz4RYlEphFBu5r0,"Al-Safiyyah ,  Dubai , United Arab Emirates","{'results': [{'address_components': [{'long_name': 'Dubai', 'short_name': 'Dubai', 'types': ['locality', 'political']}, {'long_name': 'Dubai', 'short_name': 'Dubai', 'types': ['administrative_area_level_1', 'political']}, {'long_name': 'United Arab Emirates', 'short_name': 'AE', 'types': ['country', 'political']}], 'formatted_address': 'Dubai - United Arab Emirates', 'geometry': {'bounds': {'northeast': {'lat': 25.3585607, 'lng': 55.5650393}, 'southwest': {'lat': 24.7921359, 'lng': 54.89045429999999}}, 'location': {'lat': 25.2048493, 'lng': 55.2707828}, 'location_type': 'APPROXIMATE', 'viewport': {'northeast': {'lat': 25.3585607, 'lng': 55.5650393}, 'southwest': {'lat': 24.7921359, 'lng': 54.89045429999999}}}, 'partial_match': True, 'place_id': 'ChIJRcbZaklDXz4RYlEphFBu5r0', 'types': ['locality', 'political']}], 'status': 'OK'}"
DeiraAl Rigga - Dubai - United Arab Emirates,25.2675792,55.3129667,ChIJ9wUnw8xcXz4RmOMJPxUb2Qs,"Al-Riqqa West ,  Dubai , United Arab Emirates","{'results': [{'address_components': [{'long_name': 'Al Rigga', 'short_name': 'Al Rigga', 'types': ['neighborhood', 'political']}, {'long_name': 'Deira', 'short_name': 'Deira', 'types': ['political', 'sublocality', 'sublocality_level_1']}, {'long_name': 'Dubai', 'short_name': 'Dubai', 'types': ['locality', 'political']}, {'long_name': 'Dubai', 'short_name': 'Dubai', 'types': ['administrative_area_level_1', 'political']}, {'long_name': 'United Arab Emirates', 'short_name': 'AE', 'types': ['country', 'political']}], 'formatted_address': 'DeiraAl Rigga - Dubai - United Arab Emirates', 'geometry': {'bounds': {'northeast': {'lat': 25.2700019, 'lng': 55.3161406}, 'southwest': {'lat': 25.2628802, 'lng': 55.30342700000001}}, 'location': {'lat': 25.2675792, 'lng': 55.3129667}, 'location_type': 'APPROXIMATE', 'viewport': {'northeast': {'lat': 25.2700019, 'lng': 55.3161406}, 'southwest': {'lat': 25.2628802, 'lng': 55.30342700000001}}}, 'place_id': 'ChIJ9wUnw8xcXz4RmOMJPxUb2Qs', 'types': ['neighborhood', 'political']}], 'status': 'OK'}"
DeiraAl Rigga - Dubai - United Arab Emirates,25.2675792,55.3129667,ChIJ9wUnw8xcXz4RmOMJPxUb2Qs,"Al-Riqqa East ,  Dubai , United Arab Emirates","{'results': [{'address_components': [{'long_name': 'Al Rigga', 'short_name': 'Al Rigga', 'types': ['neighborhood', 'political']}, {'long_name': 'Deira', 'short_name': 'Deira', 'types': ['political', 'sublocality', 'sublocality_level_1']}, {'long_name': 'Dubai', 'short_name': 'Dubai', 'types': ['locality', 'political']}, {'long_name': 'Dubai', 'short_name': 'Dubai', 'types': ['administrative_area_level_1', 'political']}, {'long_name': 'United Arab Emirates', 'short_name': 'AE', 'types': ['country', 'political']}], 'formatted_address': 'DeiraAl Rigga - Dubai - United Arab Emirates', 'geometry': {'bounds': {'northeast': {'lat': 25.2700019, 'lng': 55.3161406}, 'southwest': {'lat': 25.2628802, 'lng': 55.30342700000001}}, 'location': {'lat': 25.2675792, 'lng': 55.3129667}, 'location_type': 'APPROXIMATE', 'viewport': {'northeast': {'lat': 25.2700019, 'lng': 55.3161406}, 'southwest': {'lat': 25.2628802, 'lng': 55.30342700000001}}}, 'place_id': 'ChIJ9wUnw8xcXz4RmOMJPxUb2Qs', 'types': ['neighborhood', 'political']}], 'status': 'OK'}"
DeiraAyal Nasir - Dubai - United Arab Emirates,25.2728322,55.3037969,ChIJhzlmRU9DXz4RqaJv3-xLptU,"Eyal Nasser ,  Dubai , United Arab Emirates","{'results': [{'address_components': [{'long_name': 'Ayal Nasir', 'short_name': 'Ayal Nasir', 'types': ['neighborhood', 'political']}, {'long_name': 'Deira', 'short_name': 'Deira', 'types': ['political', 'sublocality', 'sublocality_level_1']}, {'long_name': 'Dubai', 'short_name': 'Dubai', 'types': ['locality', 'political']}, {'long_name': 'Dubai', 'short_name': 'Dubai', 'types': ['administrative_area_level_1', 'political']}, {'long_name': 'United Arab Emirates', 'short_name': 'AE', 'types': ['country', 'political']}], 'formatted_address': 'DeiraAyal Nasir - Dubai - United Arab Emirates', 'geometry': {'location': {'lat': 25.2728322, 'lng': 55.3037969}, 'location_type': 'APPROXIMATE', 'viewport': {'northeast': {'lat': 25.2829218, 'lng': 55.31980429999999}, 'southwest': {'lat': 25.2627418, 'lng': 55.2877895}}}, 'place_id': 'ChIJhzlmRU9DXz4RqaJv3-xLptU', 'types': ['neighborhood', 'political']}], 'status': 'OK'}"
DeiraAl Ras - Dubai - United Arab Emirates,25.2687811,55.2956887,ChIJI36uAERDXz4RFyw5ZZakrtY,"Al Ras ,  Dubai , United Arab Emirates","{'results': [{'address_components': [{'long_name': 'Al Ras', 'short_name': 'Al Ras', 'types': ['neighborhood', 'political']}, {'long_name': 'Deira', 'short_name': 'Deira', 'types': ['political', 'sublocality', 'sublocality_level_1']}, {'long_name': 'Dubai', 'short_name': 'Dubai', 'types': ['locality', 'political']}, {'long_name': 'Dubai', 'short_name': 'Dubai', 'types': ['administrative_area_level_1', 'political']}, {'long_name': 'United Arab Emirates', 'short_name': 'AE', 'types': ['country', 'political']}], 'formatted_address': 'DeiraAl Ras - Dubai - United Arab Emirates', 'geometry': {'bounds': {'northeast': {'lat': 25.2724467, 'lng': 55.2985132}, 'southwest': {'lat': 25.2658977, 'lng': 55.2924622}}, 'location': {'lat': 25.2687811, 'lng': 55.2956887}, 'location_type': 'APPROXIMATE', 'viewport': {'northeast': {'lat': 25.2724467, 'lng': 55.2985132}, 'southwest': {'lat': 25.2658977, 'lng': 55.2924622}}}, 'place_id': 'ChIJI36uAERDXz4RFyw5ZZakrtY', 'types': ['neighborhood', 'political']}], 'status': 'OK'}"
Naif St - Deira - Dubai - United Arab Emirates,25.2744537,55.308914,ChIJyebk9ExDXz4Rq1PjJcw2IpE,"Naif North ,  Dubai , United Arab Emirates","{'results': [{'address_components': [{'long_name': 'Naif Street', 'short_name': 'Naif St', 'types': ['route']}, {'long_name': 'Deira', 'short_name': 'Deira', 'types': ['political', 'sublocality', 'sublocality_level_1']}, {'long_name': 'Dubai', 'short_name': 'Dubai', 'types': ['locality', 'political']}, {'long_name': 'Dubai', 'short_name': 'Dubai', 'types': ['administrative_area_level_1', 'political']}, {'long_name': 'United Arab Emirates', 'short_name': 'AE', 'types': ['country', 'political']}], 'formatted_address': 'Naif St - Deira - Dubai - United Arab Emirates', 'geometry': {'bounds': {'northeast': {'lat': 25.277371, 'lng': 55.3157315}, 'southwest': {'lat': 25.2710903, 'lng': 55.3019083}}, 'location': {'lat': 25.2744537, 'lng': 55.30891399999999}, 'location_type': 'GEOMETRIC_CENTER', 'viewport': {'northeast': {'lat': 25.277371, 'lng': 55.3157315}, 'southwest': {'lat': 25.2710903, 'lng': 55.3019083}}}, 'place_id': 'ChIJyebk9ExDXz4Rq1PjJcw2IpE', 'types': ['route']}], 'status': 'OK'}"
Mushrif - Dubai - United Arab Emirates,25.2077215,55.4526995,ChIJO8rQHPhgXz4Rxt7GsgwaQ_4,"Mushrif ,  Dubai , United Arab Emirates","{'results': [{'address_components': [{'long_name': 'Mushrif', 'short_name': 'Mushrif', 'types': ['political', 'sublocality', 'sublocality_level_1']}, {'long_name': 'Dubai', 'short_name': 'Dubai', 'types': ['locality', 'political']}, {'long_name': 'Dubai', 'short_name': 'Dubai', 'types': ['administrative_area_level_1', 'political']}, {'long_name': 'United Arab Emirates', 'short_name': 'AE', 'types': ['country', 'political']}], 'formatted_address': 'Mushrif - Dubai - United Arab Emirates', 'geometry': {'bounds': {'northeast': {'lat': 25.2323905, 'lng': 55.46559329999999}, 'southwest': {'lat': 25.1897191, 'lng': 55.42727}}, 'location': {'lat': 25.2077215, 'lng': 55.45269949999999}, 'location_type': 'APPROXIMATE', 'viewport': {'northeast': {'lat': 25.2323905, 'lng': 55.46559329999999}, 'southwest': {'lat': 25.1897191, 'lng': 55.42727}}}, 'place_id': 'ChIJO8rQHPhgXz4Rxt7GsgwaQ_4', 'types': ['political', 'sublocality', 'sublocality_level_1']}], 'status': 'OK'}"
Al Rigga Rd - Deira - Dubai - United Arab Emirates,25.2625115,55.3264617,ChIJSVtQSsVcXz4RUQrBaRdPoXk,"Al-Zarouniyyah ,  Dubai , United Arab Emirates","{'results': [{'address_components': [{'long_name': 'Al Rigga Road', 'short_name': 'Al Rigga Rd', 'types': ['route']}, {'long_name': 'Deira', 'short_name': 'Deira', 'types': ['political', 'sublocality', 'sublocality_level_1']}, {'long_name': 'Dubai', 'short_name': 'Dubai', 'types': ['locality', 'political']}, {'long_name': 'Dubai', 'short_name': 'Dubai', 'types': ['administrative_area_level_1', 'political']}, {'long_name': 'United Arab Emirates', 'short_name': 'AE', 'types': ['country', 'political']}], 'formatted_address': 'Al Rigga Rd - Deira - Dubai - United Arab Emirates', 'geometry': {'location': {'lat': 25.2625115, 'lng': 55.3264617}, 'location_type': 'ROOFTOP', 'viewport': {'northeast': {'lat': 25.2638604802915, 'lng': 55.3278106802915}, 'southwest': {'lat': 25.2611625197085, 'lng': 55.3251127197085}}}, 'partial_match': True, 'place_id': 'ChIJSVtQSsVcXz4RUQrBaRdPoXk', 'types': ['establishment', 'premise']}], 'status': 'OK'}"
Murar Jadeed 1 - Al Baraha - Dubai - United Arab Emirates,25.278793,55.312187,ChIJQxDofE1DXz4RRUTuaQrq0k4,"Al-Murar Jadeed ,  Dubai , United Arab Emirates","{'results': [{'address_components': [{'long_name': 'Murar Jadeed 1', 'short_name': 'Murar Jadeed 1', 'types': ['establishment', 'point_of_interest', 'transit_station']}, {'long_name': 'Al Baraha', 'short_name': 'Al Baraha', 'types': ['political', 'sublocality', 'sublocality_level_1']}, {'long_name': 'Dubai', 'short_name': 'Dubai', 'types': ['locality', 'political']}, {'long_name': 'Dubai', 'short_name': 'Dubai', 'types': ['administrative_area_level_1', 'political']}, {'long_name': 'United Arab Emirates', 'short_name': 'AE', 'types': ['country', 'political']}], 'formatted_address': 'Murar Jadeed 1 - Al Baraha - Dubai - United Arab Emirates', 'geometry': {'location': {'lat': 25.278793, 'lng': 55.31218699999999}, 'location_type': 'GEOMETRIC_CENTER', 'viewport': {'northeast': {'lat': 25.2801419802915, 'lng': 55.3135359802915}, 'southwest': {'lat': 25.2774440197085, 'lng': 55.3108380197085}}}, 'place_id': 'ChIJQxDofE1DXz4RRUTuaQrq0k4', 'plus_code': {'compound_code': '78H6+GV Dubai - United Arab Emirates', 'global_code': '7HQQ78H6+GV'}, 'types': ['establishment', 'point_of_interest', 'transit_station']}], 'status': 'OK'}"
Al NahdaAl Nahda 1 - Dubai - United Arab Emirates,25.2919567,55.365513,ChIJ6W0X2mVcXz4R9MntE5k8ZzA,"Al-Nahdah ,  Dubai , United Arab Emirates","{'results': [{'address_components': [{'long_name': 'Al Nahda 1', 'short_name': 'Al Nahda 1', 'types': ['neighborhood', 'political']}, {'long_name': 'Al Nahda', 'short_name': 'Al Nahda', 'types': ['political', 'sublocality', 'sublocality_level_1']}, {'long_name': 'Dubai', 'short_name': 'Dubai', 'types': ['locality', 'political']}, {'long_name': 'Dubai', 'short_name': 'Dubai', 'types': ['administrative_area_level_1', 'political']}, {'long_name': 'United Arab Emirates', 'short_name': 'AE', 'types': ['country', 'political']}], 'formatted_address': 'Al NahdaAl Nahda 1 - Dubai - United Arab Emirates', 'geometry': {'bounds': {'northeast': {'lat': 25.2999717, 'lng': 55.3788298}, 'southwest': {'lat': 25.2784301, 'lng': 55.35666209999999}}, 'location': {'lat': 25.2919567, 'lng': 55.365513}, 'location_type': 'APPROXIMATE', 'viewport': {'northeast': {'lat': 25.2999717, 'lng': 55.3788298}, 'southwest': {'lat': 25.2784301, 'lng': 55.35666209999999}}}, 'place_id': 'ChIJ6W0X2mVcXz4R9MntE5k8ZzA', 'types': ['neighborhood', 'political']}], 'status': 'OK'}"
Al Qiyadah Metro Station - AL QIYADAH - الطوار - دبي - United Arab Emirates,25.2776458,55.3526907,ChIJG_KCZPNcXz4RHPyaUVqs1pc,"Al-Qiyadah ,  Dubai , United Arab Emirates","{'results': [{'address_components': [{'long_name': 'Al Qiyadah Metro Station', 'short_name': 'Al Qiyadah Metro Station', 'types': ['establishment', 'point_of_interest', 'subway_station', 'transit_station']}, {'long_name': 'الطوار', 'short_name': 'الطوار', 'types': ['political', 'sublocality', 'sublocality_level_1']}, {'long_name': 'دبي', 'short_name': 'دبي', 'types': ['locality', 'political']}, {'long_name': 'دبي', 'short_name': 'دبي', 'types': ['administrative_area_level_1', 'political']}, {'long_name': 'United Arab Emirates', 'short_name': 'AE', 'types': ['country', 'political']}], 'formatted_address': 'Al Qiyadah Metro Station - AL QIYADAH - الطوار - دبي - United Arab Emirates', 'geometry': {'location': {'lat': 25.2776458, 'lng': 55.3526907}, 'location_type': 'GEOMETRIC_CENTER', 'viewport': {'northeast': {'lat': 25.2789947802915, 'lng': 55.35403968029149}, 'southwest': {'lat': 25.2762968197085, 'lng': 55.3513417197085}}}, 'place_id': 'ChIJG_KCZPNcXz4RHPyaUVqs1pc', 'plus_code': {'compound_code': '79H3+33 Dubai - United Arab Emirates', 'global_code': '7HQQ79H3+33'}, 'types': ['establishment', 'point_of_interest', 'subway_station', 'transit_station']}], 'status': 'OK'}"
Naif St - Deira - Dubai - United Arab Emirates,25.2744537,55.308914,ChIJyebk9ExDXz4Rq1PjJcw2IpE,"Naif South ,  Dubai , United Arab Emirates","{'results': [{'address_components': [{'long_name': 'Naif Street', 'short_name': 'Naif St', 'types': ['route']}, {'long_name': 'Deira', 'short_name': 'Deira', 'types': ['political', 'sublocality', 'sublocality_level_1']}, {'long_name': 'Dubai', 'short_name': 'Dubai', 'types': ['locality', 'political']}, {'long_name': 'Dubai', 'short_name': 'Dubai', 'types': ['administrative_area_level_1', 'political']}, {'long_name': 'United Arab Emirates', 'short_name': 'AE', 'types': ['country', 'political']}], 'formatted_address': 'Naif St - Deira - Dubai - United Arab Emirates', 'geometry': {'bounds': {'northeast': {'lat': 25.277371, 'lng': 55.3157315}, 'southwest': {'lat': 25.2710903, 'lng': 55.3019083}}, 'location': {'lat': 25.2744537, 'lng': 55.30891399999999}, 'location_type': 'GEOMETRIC_CENTER', 'viewport': {'northeast': {'lat': 25.277371, 'lng': 55.3157315}, 'southwest': {'lat': 25.2710903, 'lng': 55.3019083}}}, 'place_id': 'ChIJyebk9ExDXz4Rq1PjJcw2IpE', 'types': ['route']}], 'status': 'OK'}"
DeiraAl Dhagaya - Dubai - United Arab Emirates,25.272632,55.3004654,ChIJoSRZTURDXz4RwtgVfjG1u5A,"Al Dhagaya ,  Dubai , United Arab Emirates","{'results': [{'address_components': [{'long_name': 'Al Dhagaya', 'short_name': 'Al Dhagaya', 'types': ['neighborhood', 'political']}, {'long_name': 'Deira', 'short_name': 'Deira', 'types': ['political', 'sublocality', 'sublocality_level_1']}, {'long_name': 'Dubai', 'short_name': 'Dubai', 'types': ['locality', 'political']}, {'long_name': 'Dubai', 'short_name': 'Dubai', 'types': ['administrative_area_level_1', 'political']}, {'long_name': 'United Arab Emirates', 'short_name': 'AE', 'types': ['country', 'political']}], 'formatted_address': 'DeiraAl Dhagaya - Dubai - United Arab Emirates', 'geometry': {'location': {'lat': 25.272632, 'lng': 55.3004654}, 'location_type': 'APPROXIMATE', 'viewport': {'northeast': {'lat': 25.2827216, 'lng': 55.3164728}, 'southwest': {'lat': 25.2625416, 'lng': 55.284458}}}, 'place_id': 'ChIJoSRZTURDXz4RwtgVfjG1u5A', 'types': ['neighborhood', 'political']}], 'status': 'OK'}"
Al Murar - Dubai - United Arab Emirates,25.2763552,55.3095108,ChIJxeYOxE1DXz4RUWzXGXkGwrg,"Al-Murar Qadeem ,  Dubai , United Arab Emirates","{'results': [{'address_components': [{'long_name': 'Al Murar', 'short_name': 'Al Murar', 'types': ['neighborhood', 'political']}, {'long_name': 'Al Murar', 'short_name': 'Al Murar', 'types': ['political', 'sublocality', 'sublocality_level_1']}, {'long_name': 'Dubai', 'short_name': 'Dubai', 'types': ['locality', 'political']}, {'long_name': 'Dubai', 'short_name': 'Dubai', 'types': ['administrative_area_level_1', 'political']}, {'long_name': 'United Arab Emirates', 'short_name': 'AE', 'types': ['country', 'political']}], 'formatted_address': 'Al Murar - Dubai - United Arab Emirates', 'geometry': {'bounds': {'northeast': {'lat': 25.279102, 'lng': 55.31492830000001}, 'southwest': {'lat': 25.2736789, 'lng': 55.3052079}}, 'location': {'lat': 25.2763552, 'lng': 55.3095108}, 'location_type': 'APPROXIMATE', 'viewport': {'northeast': {'lat': 25.279102, 'lng': 55.31492830000001}, 'southwest': {'lat': 25.2736789, 'lng': 55.3052079}}}, 'place_id': 'ChIJxeYOxE1DXz4RUWzXGXkGwrg', 'types': ['neighborhood', 'political']}], 'status': 'OK'}"
Al Muraqqabat - Dubai - United Arab Emirates,25.2653598,55.3240264,ChIJ31m8MM9cXz4RbZ95ojmz9eE,"Al Murqabat ,  Dubai , United Arab Emirates","{'results': [{'address_components': [{'long_name': 'Al Muraqqabat', 'short_name': 'Al Muraqqabat', 'types': ['political', 'sublocality', 'sublocality_level_1']}, {'long_name': 'Dubai', 'short_name': 'Dubai', 'types': ['locality', 'political']}, {'long_name': 'Dubai', 'short_name': 'Dubai', 'types': ['administrative_area_level_1', 'political']}, {'long_name': 'United Arab Emirates', 'short_name': 'AE', 'types': ['country', 'political']}], 'formatted_address': 'Al Muraqqabat - Dubai - United Arab Emirates', 'geometry': {'bounds': {'northeast': {'lat': 25.2704093, 'lng': 55.33037789999999}, 'southwest': {'lat': 25.2589554, 'lng': 55.314542}}, 'location': {'lat': 25.2653598, 'lng': 55.3240264}, 'location_type': 'APPROXIMATE', 'viewport': {'northeast': {'lat': 25.2704093, 'lng': 55.33037789999999}, 'southwest': {'lat': 25.2589554, 'lng': 55.314542}}}, 'place_id': 'ChIJ31m8MM9cXz4RbZ95ojmz9eE', 'types': ['political', 'sublocality', 'sublocality_level_1']}], 'status': 'OK'}"
59 Sikkat Al Khail Rd - DeiraAl Ras - Dubai - United Arab Emirates,25.2693568,55.2972949,ChIJ9QG6UUFDXz4R3DlTWyRvGQI,"Sikkat Al Khail North ,  Dubai , United Arab Emirates","{'results': [{'address_components': [{'long_name': '59', 'short_name': '59', 'types': ['street_number']}, {'long_name': 'Sikkat Al Khail Road', 'short_name': 'Sikkat Al Khail Rd', 'types': ['route']}, {'long_name': 'Al Ras', 'short_name': 'Al Ras', 'types': ['neighborhood', 'political']}, {'long_name': 'Deira', 'short_name': 'Deira', 'types': ['political', 'sublocality', 'sublocality_level_1']}, {'long_name': 'Dubai', 'short_name': 'Dubai', 'types': ['locality', 'political']}, {'long_name': 'Dubai', 'short_name': 'Dubai', 'types': ['administrative_area_level_1', 'political']}, {'long_name': 'United Arab Emirates', 'short_name': 'AE', 'types': ['country', 'political']}], 'formatted_address': '59 Sikkat Al Khail Rd - DeiraAl Ras - Dubai - United Arab Emirates', 'geometry': {'location': {'lat': 25.2693568, 'lng': 55.2972949}, 'location_type': 'ROOFTOP', 'viewport': {'northeast': {'lat': 25.27070578029151, 'lng': 55.29864388029151}, 'southwest': {'lat': 25.2680078197085, 'lng': 55.29594591970851}}}, 'place_id': 'ChIJ9QG6UUFDXz4R3DlTWyRvGQI', 'plus_code': {'compound_code': '779W+PW Dubai - United Arab Emirates', 'global_code': '7HQQ779W+PW'}, 'types': ['establishment', 'jewelry_store', 'point_of_interest', 'store']}], 'status': 'OK'}"
59 Sikkat Al Khail Rd - DeiraAl Ras - Dubai - United Arab Emirates,25.2693568,55.2972949,ChIJ9QG6UUFDXz4R3DlTWyRvGQI,"Sikkat Al Khail South ,  Dubai , United Arab Emirates","{'results': [{'address_components': [{'long_name': '59', 'short_name': '59', 'types': ['street_number']}, {'long_name': 'Sikkat Al Khail Road', 'short_name': 'Sikkat Al Khail Rd', 'types': ['route']}, {'long_name': 'Al Ras', 'short_name': 'Al Ras', 'types': ['neighborhood', 'political']}, {'long_name': 'Deira', 'short_name': 'Deira', 'types': ['political', 'sublocality', 'sublocality_level_1']}, {'long_name': 'Dubai', 'short_name': 'Dubai', 'types': ['locality', 'political']}, {'long_name': 'Dubai', 'short_name': 'Dubai', 'types': ['administrative_area_level_1', 'political']}, {'long_name': 'United Arab Emirates', 'short_name': 'AE', 'types': ['country', 'political']}], 'formatted_address': '59 Sikkat Al Khail Rd - DeiraAl Ras - Dubai - United Arab Emirates', 'geometry': {'location': {'lat': 25.2693568, 'lng': 55.2972949}, 'location_type': 'ROOFTOP', 'viewport': {'northeast': {'lat': 25.27070578029151, 'lng': 55.29864388029151}, 'southwest': {'lat': 25.2680078197085, 'lng': 55.29594591970851}}}, 'place_id': 'ChIJ9QG6UUFDXz4R3DlTWyRvGQI', 'plus_code': {'compound_code': '779W+PW Dubai - United Arab Emirates', 'global_code': '7HQQ779W+PW'}, 'types': ['establishment', 'jewelry_store', 'point_of_interest', 'store']}], 'status': 'OK'}"
Muteena - Dubai - United Arab Emirates,25.2740443,55.3226439,ChIJA6zk_bZcXz4RbmdfpFYiSnE,"Al Muteena ,  Dubai , United Arab Emirates","{'results': [{'address_components': [{'long_name': 'Muteena', 'short_name': 'Muteena', 'types': ['political', 'sublocality', 'sublocality_level_1']}, {'long_name': 'Dubai', 'short_name': 'Dubai', 'types': ['locality', 'political']}, {'long_name': 'Dubai', 'short_name': 'Dubai', 'types': ['administrative_area_level_1', 'political']}, {'long_name': 'United Arab Emirates', 'short_name': 'AE', 'types': ['country', 'political']}], 'formatted_address': 'Muteena - Dubai - United Arab Emirates', 'geometry': {'bounds': {'northeast': {'lat': 25.2785203, 'lng': 55.3302327}, 'southwest': {'lat': 25.2701967, 'lng': 55.3152337}}, 'location': {'lat': 25.2740443, 'lng': 55.3226439}, 'location_type': 'APPROXIMATE', 'viewport': {'northeast': {'lat': 25.2785203, 'lng': 55.3302327}, 'southwest': {'lat': 25.2701967, 'lng': 55.3152337}}}, 'place_id': 'ChIJA6zk_bZcXz4RbmdfpFYiSnE', 'types': ['political', 'sublocality', 'sublocality_level_1']}], 'status': 'OK'}"
Al Souq Al Kabeer - Dubai - United Arab Emirates,25.262408,55.2936155,ChIJUQEswz9DXz4RKDSqlMS1gMI,"Al-Souq Al Kabeer (Deira) ,  Dubai , United Arab Emirates","{'results': [{'address_components': [{'long_name': 'Al Souq Al Kabeer', 'short_name': 'Al Souq Al Kabeer', 'types': ['neighborhood', 'political']}, {'long_name': 'Dubai', 'short_name': 'Dubai', 'types': ['locality', 'political']}, {'long_name': 'Dubai', 'short_name': 'Dubai', 'types': ['administrative_area_level_1', 'political']}, {'long_name': 'United Arab Emirates', 'short_name': 'AE', 'types': ['country', 'political']}], 'formatted_address': 'Al Souq Al Kabeer - Dubai - United Arab Emirates', 'geometry': {'bounds': {'northeast': {'lat': 25.2655485, 'lng': 55.30141}, 'southwest': {'lat': 25.2584654, 'lng': 55.2846621}}, 'location': {'lat': 25.262408, 'lng': 55.2936155}, 'location_type': 'APPROXIMATE', 'viewport': {'northeast': {'lat': 25.2655485, 'lng': 55.30141}, 'southwest': {'lat': 25.2584654, 'lng': 55.2846621}}}, 'place_id': 'ChIJUQEswz9DXz4RKDSqlMS1gMI', 'types': ['neighborhood', 'political']}], 'status': 'OK'}"
Al Maktoum Rd - Deira - Dubai - United Arab Emirates,25.259933,55.3227684,ChIJy7cSNdBcXz4RAd-ZDDeUvPE,"Rega Al Buteen ,  Dubai , United Arab Emirates","{'results': [{'address_components': [{'long_name': 'Al Maktoum Road', 'short_name': 'Al Maktoum Rd', 'types': ['route']}, {'long_name': 'Deira', 'short_name': 'Deira', 'types': ['political', 'sublocality', 'sublocality_level_1']}, {'long_name': 'Dubai', 'short_name': 'Dubai', 'types': ['locality', 'political']}, {'long_name': 'Dubai', 'short_name': 'Dubai', 'types': ['administrative_area_level_1', 'political']}, {'long_name': 'United Arab Emirates', 'short_name': 'AE', 'types': ['country', 'political']}], 'formatted_address': 'Al Maktoum Rd - Deira - Dubai - United Arab Emirates', 'geometry': {'location': {'lat': 25.259933, 'lng': 55.32276839999999}, 'location_type': 'GEOMETRIC_CENTER', 'viewport': {'northeast': {'lat': 25.26128198029151, 'lng': 55.3241173802915}, 'southwest': {'lat': 25.2585840197085, 'lng': 55.3214194197085}}}, 'place_id': 'ChIJy7cSNdBcXz4RAd-ZDDeUvPE', 'plus_code': {'compound_code': '785F+X4 Dubai - United Arab Emirates', 'global_code': '7HQQ785F+X4'}, 'types': ['establishment', 'point_of_interest']}], 'status': 'OK'}"
Al Musalla Rd - Deira - Dubai - United Arab Emirates,25.273365,55.3065221,ChIJVwkIAE9DXz4RYHYBHCIFyfU,"Al-Musalla (Deira) ,  Dubai , United Arab Emirates","{'results': [{'address_components': [{'long_name': 'Al Musalla Road', 'short_name': 'Al Musalla Rd', 'types': ['route']}, {'long_name': 'Deira', 'short_name': 'Deira', 'types': ['political', 'sublocality', 'sublocality_level_1']}, {'long_name': 'Dubai', 'short_name': 'Dubai', 'types': ['locality', 'political']}, {'long_name': 'Dubai', 'short_name': 'Dubai', 'types': ['administrative_area_level_1', 'political']}, {'long_name': 'United Arab Emirates', 'short_name': 'AE', 'types': ['country', 'political']}], 'formatted_address': 'Al Musalla Rd - Deira - Dubai - United Arab Emirates', 'geometry': {'bounds': {'northeast': {'lat': 25.2771867, 'lng': 55.3081285}, 'southwest': {'lat': 25.2690117, 'lng': 55.3046728}}, 'location': {'lat': 25.273365, 'lng': 55.3065221}, 'location_type': 'GEOMETRIC_CENTER', 'viewport': {'northeast': {'lat': 25.2771867, 'lng': 55.3081285}, 'southwest': {'lat': 25.2690117, 'lng': 55.3046728}}}, 'place_id': 'ChIJVwkIAE9DXz4RYHYBHCIFyfU', 'types': ['route']}], 'status': 'OK'}"
DeiraAl Sabkha - Dubai - United Arab Emirates,25.2711827,55.2998351,ChIJOyXWK0RDXz4RXZGmwSrPEhk,"Al Sabkha ,  Dubai , United Arab Emirates","{'results': [{'address_components': [{'long_name': 'Al Sabkha', 'short_name': 'Al Sabkha', 'types': ['neighborhood', 'political']}, {'long_name': 'Deira', 'short_name': 'Deira', 'types': ['political', 'sublocality', 'sublocality_level_1']}, {'long_name': 'Dubai', 'short_name': 'Dubai', 'types': ['locality', 'political']}, {'long_name': 'Dubai', 'short_name': 'Dubai', 'types': ['administrative_area_level_1', 'political']}, {'long_name': 'United Arab Emirates', 'short_name': 'AE', 'types': ['country', 'political']}], 'formatted_address': 'DeiraAl Sabkha - Dubai - United Arab Emirates', 'geometry': {'bounds': {'northeast': {'lat': 25.2751244, 'lng': 55.3034378}, 'southwest': {'lat': 25.2673239, 'lng': 55.2965283}}, 'location': {'lat': 25.2711827, 'lng': 55.2998351}, 'location_type': 'APPROXIMATE', 'viewport': {'northeast': {'lat': 25.2751244, 'lng': 55.3034378}, 'southwest': {'lat': 25.2673239, 'lng': 55.2965283}}}, 'place_id': 'ChIJOyXWK0RDXz4RXZGmwSrPEhk', 'types': ['neighborhood', 'political']}], 'status': 'OK'}"
Al Khabaisi - Dubai - United Arab Emirates,25.2666503,55.3337049,ChIJ0Wf4BulcXz4RHuR0ki2ZbYo,"Al Khabeesi ,  Dubai , United Arab Emirates","{'results': [{'address_components': [{'long_name': 'Al Khabaisi', 'short_name': 'Al Khabaisi', 'types': ['political', 'sublocality', 'sublocality_level_1']}, {'long_name': 'Dubai', 'short_name': 'Dubai', 'types': ['locality', 'political']}, {'long_name': 'Dubai', 'short_name': 'Dubai', 'types': ['administrative_area_level_1', 'political']}, {'long_name': 'United Arab Emirates', 'short_name': 'AE', 'types': ['country', 'political']}], 'formatted_address': 'Al Khabaisi - Dubai - United Arab Emirates', 'geometry': {'bounds': {'northeast': {'lat': 25.2756118, 'lng': 55.3484843}, 'southwest': {'lat': 25.2567343, 'lng': 55.32705929999999}}, 'location': {'lat': 25.2666503, 'lng': 55.3337049}, 'location_type': 'APPROXIMATE', 'viewport': {'northeast': {'lat': 25.2756118, 'lng': 55.3484843}, 'southwest': {'lat': 25.2567343, 'lng': 55.32705929999999}}}, 'place_id': 'ChIJ0Wf4BulcXz4RHuR0ki2ZbYo', 'types': ['political', 'sublocality', 'sublocality_level_1']}], 'status': 'OK'}"
Al Khail Rd - Dubai - United Arab Emirates,25.1379374,55.2602406,ChIJe1YtAy5pXz4RSJEY4m2Z02Y,"Al-Mustashfa West ,  Dubai , United Arab Emirates","{'results': [{'address_components': [{'long_name': 'Al Khail Road', 'short_name': 'Al Khail Rd', 'types': ['route']}, {'long_name': 'Dubai', 'short_name': 'Dubai', 'types': ['locality', 'political']}, {'long_name': 'United Arab Emirates', 'short_name': 'AE', 'types': ['country', 'political']}], 'formatted_address': 'Al Khail Rd - Dubai - United Arab Emirates', 'geometry': {'bounds': {'northeast': {'lat': 25.2315297, 'lng': 55.350299}, 'southwest': {'lat': 25.0402689, 'lng': 55.1927835}}, 'location': {'lat': 25.1379374, 'lng': 55.2602406}, 'location_type': 'GEOMETRIC_CENTER', 'viewport': {'northeast': {'lat': 25.2315297, 'lng': 55.350299}, 'southwest': {'lat': 25.0402689, 'lng': 55.1927835}}}, 'partial_match': True, 'place_id': 'ChIJe1YtAy5pXz4RSJEY4m2Z02Y', 'types': ['route']}], 'status': 'OK'}"
Al Nakhal Rd - Deira - Dubai - United Arab Emirates,25.2717156,55.311987,ChIJhUULHktDXz4RB18Z_hh5Lvs,"Al-Nakhal ,  Dubai , United Arab Emirates","{'results': [{'address_components': [{'long_name': 'Al Nakhal Road', 'short_name': 'Al Nakhal Rd', 'types': ['route']}, {'long_name': 'Deira', 'short_name': 'Deira', 'types': ['political', 'sublocality', 'sublocality_level_1']}, {'long_name': 'Dubai', 'short_name': 'Dubai', 'types': ['locality', 'political']}, {'long_name': 'Dubai', 'short_name': 'Dubai', 'types': ['administrative_area_level_1', 'political']}, {'long_name': 'United Arab Emirates', 'short_name': 'AE', 'types': ['country', 'political']}], 'formatted_address': 'Al Nakhal Rd - Deira - Dubai - United Arab Emirates', 'geometry': {'bounds': {'northeast': {'lat': 25.2724751, 'lng': 55.3164227}, 'southwest': {'lat': 25.2699816, 'lng': 55.3074373}}, 'location': {'lat': 25.2717156, 'lng': 55.31198699999999}, 'location_type': 'GEOMETRIC_CENTER', 'viewport': {'northeast': {'lat': 25.2725773302915, 'lng': 55.3164227}, 'southwest': {'lat': 25.26987936970849, 'lng': 55.3074373}}}, 'place_id': 'ChIJhUULHktDXz4RB18Z_hh5Lvs', 'types': ['route']}], 'status': 'OK'}"
Al Fahidi - Dubai - United Arab Emirates,25.2643559,55.2998811,ChIJpUWZXTdDXz4R_lcmpwt-qFQ,"Al-Bastakiyah ,  Dubai , United Arab Emirates","{'results': [{'address_components': [{'long_name': 'Dubai', 'short_name': 'Dubai', 'types': ['locality', 'political']}, {'long_name': 'Al Fahidi', 'short_name': 'Al Fahidi', 'types': ['neighborhood', 'political']}, {'long_name': 'Dubai', 'short_name': 'Dubai', 'types': ['administrative_area_level_1', 'political']}, {'long_name': 'United Arab Emirates', 'short_name': 'AE', 'types': ['country', 'political']}], 'formatted_address': 'Al Fahidi - Dubai - United Arab Emirates', 'geometry': {'location': {'lat': 25.2643559, 'lng': 55.2998811}, 'location_type': 'GEOMETRIC_CENTER', 'viewport': {'northeast': {'lat': 25.2657048802915, 'lng': 55.3012300802915}, 'southwest': {'lat': 25.2630069197085, 'lng': 55.2985321197085}}}, 'partial_match': True, 'place_id': 'ChIJpUWZXTdDXz4R_lcmpwt-qFQ', 'plus_code': {'compound_code': '777X+PX Dubai - United Arab Emirates', 'global_code': '7HQQ777X+PX'}, 'types': ['establishment', 'point_of_interest', 'tourist_attraction']}], 'status': 'OK'}"
Al WarqaAl Warqa 3 - Dubai - United Arab Emirates,25.1885455,55.4194753,ChIJaeiExyFhXz4RHkmcUFVE2B8,"Al Warqa Third ,  Dubai , United Arab Emirates","{'results': [{'address_components': [{'long_name': 'Al Warqa 3', 'short_name': 'Al Warqa 3', 'types': ['neighborhood', 'political']}, {'long_name': 'Al Warqa', 'short_name': 'Al Warqa', 'types': ['political', 'sublocality', 'sublocality_level_1']}, {'long_name': 'Dubai', 'short_name': 'Dubai', 'types': ['locality', 'political']}, {'long_name': 'Dubai', 'short_name': 'Dubai', 'types': ['administrative_area_level_1', 'political']}, {'long_name': 'United Arab Emirates', 'short_name': 'AE', 'types': ['country', 'political']}], 'formatted_address': 'Al WarqaAl Warqa 3 - Dubai - United Arab Emirates', 'geometry': {'bounds': {'northeast': {'lat': 25.2083837, 'lng': 55.438642}, 'southwest': {'lat': 25.1745677, 'lng': 55.40874420000001}}, 'location': {'lat': 25.1885455, 'lng': 55.41947529999999}, 'location_type': 'APPROXIMATE', 'viewport': {'northeast': {'lat': 25.2083837, 'lng': 55.438642}, 'southwest': {'lat': 25.1745677, 'lng': 55.40874420000001}}}, 'place_id': 'ChIJaeiExyFhXz4RHkmcUFVE2B8', 'types': ['neighborhood', 'political']}], 'status': 'OK'}"
"Doha Road, Opposite ENOC Petrol Station/Sheffield Private School - Nadd Al Hamar - Dubai - United Arab Emirates",25.214542,55.3790933,ChIJNWH13GdnXz4Rmk2f4AatCM0,"Al Nahda Second ,  Dubai , United Arab Emirates","{'results': [{'address_components': [{'long_name': 'Dubai', 'short_name': 'Dubai', 'types': ['locality', 'political']}, {'long_name': 'Nadd Al Hamar', 'short_name': 'Nadd Al Hamar', 'types': ['political', 'sublocality', 'sublocality_level_1']}, {'long_name': 'Dubai', 'short_name': 'Dubai', 'types': ['administrative_area_level_1', 'political']}, {'long_name': 'United Arab Emirates', 'short_name': 'AE', 'types': ['country', 'political']}], 'formatted_address': 'Doha Road, Opposite ENOC Petrol Station/Sheffield Private School - Nadd Al Hamar - Dubai - United Arab Emirates', 'geometry': {'location': {'lat': 25.214542, 'lng': 55.3790933}, 'location_type': 'GEOMETRIC_CENTER', 'viewport': {'northeast': {'lat': 25.2158909802915, 'lng': 55.3804422802915}, 'southwest': {'lat': 25.21319301970849, 'lng': 55.3777443197085}}}, 'place_id': 'ChIJNWH13GdnXz4Rmk2f4AatCM0', 'plus_code': {'compound_code': '697H+RJ Dubai - United Arab Emirates', 'global_code': '7HQQ697H+RJ'}, 'types': ['establishment', 'gas_station', 'point_of_interest']}], 'status': 'OK'}"
Dubai - United Arab Emirates,25.2048493,55.2707828,ChIJRcbZaklDXz4RYlEphFBu5r0,"Al-Dzahiyyah Al-Jadeedah ,  Dubai , United Arab Emirates","{'results': [{'address_components': [{'long_name': 'Dubai', 'short_name': 'Dubai', 'types': ['locality', 'political']}, {'long_name': 'Dubai', 'short_name': 'Dubai', 'types': ['administrative_area_level_1', 'political']}, {'long_name': 'United Arab Emirates', 'short_name': 'AE', 'types': ['country', 'political']}], 'formatted_address': 'Dubai - United Arab Emirates', 'geometry': {'bounds': {'northeast': {'lat': 25.3585607, 'lng': 55.5650393}, 'southwest': {'lat': 24.7921359, 'lng': 54.89045429999999}}, 'location': {'lat': 25.2048493, 'lng': 55.2707828}, 'location_type': 'APPROXIMATE', 'viewport': {'northeast': {'lat': 25.3585607, 'lng': 55.5650393}, 'southwest': {'lat': 24.7921359, 'lng': 54.89045429999999}}}, 'partial_match': True, 'place_id': 'ChIJRcbZaklDXz4RYlEphFBu5r0', 'types': ['locality', 'political']}], 'status': 'OK'}"
17 3B Street - Umm Ramool - Dubai - United Arab Emirates,25.2271961,55.3618108,ChIJO_TGroNdXz4RW-dUOnfE2c0,"Al-Baloosh ,  Dubai , United Arab Emirates","{'results': [{'address_components': [{'long_name': '17', 'short_name': '17', 'types': ['street_number']}, {'long_name': '3B Street', 'short_name': '3B Street', 'types': ['route']}, {'long_name': 'Umm Ramool', 'short_name': 'Umm Ramool', 'types': ['political', 'sublocality', 'sublocality_level_1']}, {'long_name': 'Dubai', 'short_name': 'Dubai', 'types': ['locality', 'political']}, {'long_name': 'Dubai', 'short_name': 'Dubai', 'types': ['administrative_area_level_1', 'political']}, {'long_name': 'United Arab Emirates', 'short_name': 'AE', 'types': ['country', 'political']}], 'formatted_address': '17 3B Street - Umm Ramool - Dubai - United Arab Emirates', 'geometry': {'location': {'lat': 25.2271961, 'lng': 55.3618108}, 'location_type': 'ROOFTOP', 'viewport': {'northeast': {'lat': 25.2285450802915, 'lng': 55.3631597802915}, 'southwest': {'lat': 25.2258471197085, 'lng': 55.3604618197085}}}, 'partial_match': True, 'place_id': 'ChIJO_TGroNdXz4RW-dUOnfE2c0', 'plus_code': {'compound_code': '69G6+VP Dubai - United Arab Emirates', 'global_code': '7HQQ69G6+VP'}, 'types': ['establishment', 'general_contractor', 'point_of_interest']}], 'status': 'OK'}"
Dubai - United Arab Emirates,25.2048493,55.2707828,ChIJRcbZaklDXz4RYlEphFBu5r0,"Muashrah Al Bahraana ,  Dubai , United Arab Emirates","{'results': [{'address_components': [{'long_name': 'Dubai', 'short_name': 'Dubai', 'types': ['locality', 'political']}, {'long_name': 'Dubai', 'short_name': 'Dubai', 'types': ['administrative_area_level_1', 'political']}, {'long_name': 'United Arab Emirates', 'short_name': 'AE', 'types': ['country', 'political']}], 'formatted_address': 'Dubai - United Arab Emirates', 'geometry': {'bounds': {'northeast': {'lat': 25.3585607, 'lng': 55.5650393}, 'southwest': {'lat': 24.7921359, 'lng': 54.89045429999999}}, 'location': {'lat': 25.2048493, 'lng': 55.2707828}, 'location_type': 'APPROXIMATE', 'viewport': {'northeast': {'lat': 25.3585607, 'lng': 55.5650393}, 'southwest': {'lat': 24.7921359, 'lng': 54.89045429999999}}}, 'partial_match': True, 'place_id': 'ChIJRcbZaklDXz4RYlEphFBu5r0', 'types': ['locality', 'political']}], 'status': 'OK'}"
3rd St - Dubai - United Arab Emirates,25.0921296,55.1707232,ChIJW_mB4JhsXz4RMegq0hjT274,"Al Barsha Third ,  Dubai , United Arab Emirates","{'results': [{'address_components': [{'long_name': '3rd Street', 'short_name': '3rd St', 'types': ['route']}, {'long_name': 'Dubai', 'short_name': 'Dubai', 'types': ['locality', 'political']},